$GPGGA,121500.000,6033.7647,N,09022.6800,E,1,10,1.0,1276.1,M,46.9,M,,*60
$GPGGA,121500.200,6033.7651,N,09022.6823,E,1,10,1.0,1276.1,M,46.9,M,,*64
$GPGGA,121500.400,6033.7655,N,09022.6845,E,1,10,1.0,1276.1,M,46.9,M,,*66
$GPGGA,121500.600,6033.7659,N,09022.6868,E,1,10,1.0,1276.1,M,46.9,M,,*67
$GPGGA,121500.800,6033.7663,N,09022.6890,E,1,10,1.0,1276.1,M,46.9,M,,*67
$GPGGA,121501.000,6033.7667,N,09022.6913,E,1,10,1.0,1276.1,M,46.9,M,,*60
$GPGGA,121501.200,6033.7671,N,09022.6935,E,1,10,1.0,1276.2,M,46.9,M,,*62
$GPGGA,121501.400,6033.7675,N,09022.6958,E,1,10,1.0,1276.2,M,46.9,M,,*6B
$GPGGA,121501.600,6033.7679,N,09022.6980,E,1,10,1.0,1276.2,M,46.9,M,,*60
$GPGGA,121501.800,6033.7683,N,09022.7003,E,1,10,1.0,1276.2,M,46.9,M,,*68
$GPGGA,121502.000,6033.7687,N,09022.7025,E,1,10,1.0,1276.2,M,46.9,M,,*63
$GPGGA,121502.200,6033.7690,N,09022.7048,E,1,10,1.0,1276.2,M,46.9,M,,*6C
$GPGGA,121502.400,6033.7694,N,09022.7070,E,1,10,1.0,1276.2,M,46.9,M,,*65
$GPGGA,121502.600,6033.7698,N,09022.7093,E,1,10,1.0,1276.2,M,46.9,M,,*66
$GPGGA,121502.800,6033.7702,N,09022.7115,E,1,10,1.0,1276.2,M,46.9,M,,*65
$GPGGA,121503.000,6033.7706,N,09022.7138,E,1,10,1.0,1275.3,M,46.9,M,,*65
$GPGGA,121503.200,6033.7710,N,09022.7160,E,1,10,1.0,1275.3,M,46.9,M,,*6D
$GPGGA,121503.400,6033.7714,N,09022.7183,E,1,10,1.0,1275.3,M,46.9,M,,*62
$GPGGA,121503.600,6033.7718,N,09022.7205,E,1,10,1.0,1275.3,M,46.9,M,,*61
$GPGGA,121503.800,6033.7722,N,09022.7228,E,1,10,1.0,1275.3,M,46.9,M,,*69
$GPGGA,121504.000,6033.7726,N,09022.7250,E,1,10,1.0,1275.3,M,46.9,M,,*6D
$GPGGA,121504.200,6033.7730,N,09022.7273,E,1,10,1.0,1275.3,M,46.9,M,,*69
$GPGGA,121504.400,6033.7734,N,09022.7295,E,1,10,1.0,1275.2,M,46.9,M,,*62
$GPGGA,121504.600,6033.7738,N,09022.7318,E,1,10,1.0,1275.2,M,46.9,M,,*68
$GPGGA,121504.800,6033.7742,N,09022.7340,E,1,10,1.0,1275.2,M,46.9,M,,*66
$GPGGA,121505.000,6033.7746,N,09022.7363,E,1,10,1.0,1275.2,M,46.9,M,,*6A
$GPGGA,121505.200,6033.7750,N,09022.7385,E,1,10,1.0,1275.2,M,46.9,M,,*67
$GPGGA,121505.400,6033.7754,N,09022.7408,E,1,10,1.0,1275.0,M,46.9,M,,*65
$GPGGA,121505.600,6033.7758,N,09022.7430,E,1,10,1.0,1275.0,M,46.9,M,,*60
$GPGGA,121505.800,6033.7762,N,09022.7453,E,1,10,1.0,1275.0,M,46.9,M,,*62
$GPGGA,121506.000,6033.7766,N,09022.7475,E,1,10,1.0,1275.0,M,46.9,M,,*69
$GPGGA,121506.200,6033.7769,N,09022.7497,E,1,10,1.0,1275.0,M,46.9,M,,*68
$GPGGA,121506.400,6033.7773,N,09022.7520,E,1,10,1.0,1275.0,M,46.9,M,,*68
$GPGGA,121506.600,6033.7777,N,09022.7542,E,1,10,1.0,1274.9,M,46.9,M,,*62
$GPGGA,121506.800,6033.7781,N,09022.7565,E,1,10,1.0,1274.9,M,46.9,M,,*60
$GPGGA,121507.000,6033.7785,N,09022.7587,E,1,10,1.0,1274.9,M,46.9,M,,*61
$GPGGA,121507.200,6033.7789,N,09022.7609,E,1,10,1.0,1274.9,M,46.9,M,,*6A
$GPGGA,121507.400,6033.7793,N,09022.7632,E,1,10,1.0,1274.9,M,46.9,M,,*6F
$GPGGA,121507.600,6033.7797,N,09022.7654,E,1,10,1.0,1274.6,M,46.9,M,,*66
$GPGGA,121507.800,6033.7801,N,09022.7677,E,1,10,1.0,1274.6,M,46.9,M,,*69
$GPGGA,121508.000,6033.7805,N,09022.7699,E,1,10,1.0,1274.6,M,46.9,M,,*6A
$GPGGA,121508.200,6033.7809,N,09022.7721,E,1,10,1.0,1274.6,M,46.9,M,,*66
$GPGGA,121508.400,6033.7813,N,09022.7744,E,1,10,1.0,1274.6,M,46.9,M,,*68
$GPGGA,121508.600,6033.7817,N,09022.7766,E,1,10,1.0,1274.4,M,46.9,M,,*6C
$GPGGA,121508.800,6033.7821,N,09022.7788,E,1,10,1.0,1274.4,M,46.9,M,,*67
$GPGGA,121509.000,6033.7825,N,09022.7811,E,1,10,1.0,1273.4,M,46.9,M,,*62
$GPGGA,121509.200,6033.7829,N,09022.7833,E,1,10,1.0,1273.4,M,46.9,M,,*6C
$GPGGA,121509.400,6033.7833,N,09022.7855,E,1,10,1.0,1273.4,M,46.9,M,,*61
$GPGGA,121509.600,6033.7836,N,09022.7878,E,1,10,1.0,1273.4,M,46.9,M,,*69
$GPGGA,121509.800,6033.7840,N,09022.7900,E,1,10,1.0,1273.1,M,46.9,M,,*6D
$GPGGA,121510.000,6033.7844,N,09022.7922,E,1,10,1.0,1273.1,M,46.9,M,,*69
$GPGGA,121510.200,6033.7848,N,09022.7944,E,1,10,1.0,1273.1,M,46.9,M,,*67
$GPGGA,121510.400,6033.7852,N,09022.7967,E,1,10,1.0,1273.1,M,46.9,M,,*6B
$GPGGA,121510.600,6033.7856,N,09022.7989,E,1,10,1.0,1273.1,M,46.9,M,,*6D
$GPGGA,121510.800,6033.7860,N,09022.8011,E,1,10,1.0,1272.7,M,46.9,M,,*66
$GPGGA,121511.000,6033.7864,N,09022.8033,E,1,10,1.0,1272.7,M,46.9,M,,*6B
$GPGGA,121511.200,6033.7868,N,09022.8056,E,1,10,1.0,1272.7,M,46.9,M,,*66
$GPGGA,121511.400,6033.7872,N,09022.8078,E,1,10,1.0,1272.7,M,46.9,M,,*67
$GPGGA,121511.600,6033.7876,N,09022.8100,E,1,10,1.0,1272.7,M,46.9,M,,*6F
$GPGGA,121511.800,6033.7880,N,09022.8122,E,1,10,1.0,1272.3,M,46.9,M,,*6C
$GPGGA,121512.000,6033.7884,N,09022.8144,E,1,10,1.0,1272.3,M,46.9,M,,*63
$GPGGA,121512.200,6033.7888,N,09022.8167,E,1,10,1.0,1272.3,M,46.9,M,,*6C
$GPGGA,121512.400,6033.7892,N,09022.8189,E,1,10,1.0,1272.3,M,46.9,M,,*61
$GPGGA,121512.600,6033.7896,N,09022.8211,E,1,10,1.0,1272.3,M,46.9,M,,*65
$GPGGA,121512.800,6033.7899,N,09022.8233,E,1,10,1.0,1272.3,M,46.9,M,,*64
$GPGGA,121513.000,6033.7903,N,09022.8255,E,1,10,1.0,1271.8,M,46.9,M,,*67
$GPGGA,121513.200,6033.7907,N,09022.8277,E,1,10,1.0,1271.8,M,46.9,M,,*61
$GPGGA,121513.400,6033.7911,N,09022.8299,E,1,10,1.0,1271.8,M,46.9,M,,*60
$GPGGA,121513.600,6033.7915,N,09022.8321,E,1,10,1.0,1271.8,M,46.9,M,,*64
$GPGGA,121513.800,6033.7919,N,09022.8343,E,1,10,1.0,1271.8,M,46.9,M,,*62
$GPGGA,121514.000,6033.7923,N,09022.8365,E,1,10,1.0,1271.3,M,46.9,M,,*6B
$GPGGA,121514.200,6033.7927,N,09022.8387,E,1,10,1.0,1271.3,M,46.9,M,,*61
$GPGGA,121514.400,6033.7931,N,09022.8409,E,1,10,1.0,1271.3,M,46.9,M,,*61
$GPGGA,121514.600,6033.7935,N,09022.8431,E,1,10,1.0,1271.3,M,46.9,M,,*6C
$GPGGA,121514.800,6033.7939,N,09022.8453,E,1,10,1.0,1271.3,M,46.9,M,,*6A
$GPGGA,121515.000,6033.7943,N,09022.8475,E,1,10,1.0,1271.3,M,46.9,M,,*6A
$GPGGA,121515.200,6033.7947,N,09022.8497,E,1,10,1.0,1269.7,M,46.9,M,,*6D
$GPGGA,121515.400,6033.7951,N,09022.8519,E,1,10,1.0,1269.7,M,46.9,M,,*6B
$GPGGA,121515.600,6033.7955,N,09022.8541,E,1,10,1.0,1269.7,M,46.9,M,,*60
$GPGGA,121515.800,6033.7958,N,09022.8563,E,1,10,1.0,1269.7,M,46.9,M,,*63
$GPGGA,121516.000,6033.7962,N,09022.8585,E,1,10,1.0,1269.7,M,46.9,M,,*69
$GPGGA,121516.200,6033.7966,N,09022.8607,E,1,10,1.0,1269.2,M,46.9,M,,*63
$GPGGA,121516.400,6033.7970,N,09022.8629,E,1,10,1.0,1269.2,M,46.9,M,,*6E
$GPGGA,121516.600,6033.7974,N,09022.8651,E,1,10,1.0,1269.2,M,46.9,M,,*67
$GPGGA,121516.800,6033.7978,N,09022.8672,E,1,10,1.0,1269.2,M,46.9,M,,*64
$GPGGA,121517.000,6033.7982,N,09022.8694,E,1,10,1.0,1269.2,M,46.9,M,,*60
$GPGGA,121517.200,6033.7986,N,09022.8716,E,1,10,1.0,1269.2,M,46.9,M,,*6D
$GPGGA,121517.400,6033.7990,N,09022.8738,E,1,10,1.0,1268.5,M,46.9,M,,*66
$GPGGA,121517.600,6033.7994,N,09022.8759,E,1,10,1.0,1268.5,M,46.9,M,,*67
$GPGGA,121517.800,6033.7998,N,09022.8781,E,1,10,1.0,1268.5,M,46.9,M,,*60
$GPGGA,121518.000,6033.8002,N,09022.8803,E,1,10,1.0,1268.5,M,46.9,M,,*67
$GPGGA,121518.200,6033.8006,N,09022.8825,E,1,10,1.0,1268.5,M,46.9,M,,*65
$GPGGA,121518.400,6033.8010,N,09022.8846,E,1,10,1.0,1267.9,M,46.9,M,,*62
$GPGGA,121518.600,6033.8013,N,09022.8868,E,1,10,1.0,1267.9,M,46.9,M,,*6F
$GPGGA,121518.800,6033.8017,N,09022.8890,E,1,10,1.0,1267.9,M,46.9,M,,*62
$GPGGA,121519.000,6033.8021,N,09022.8911,E,1,10,1.0,1267.9,M,46.9,M,,*66
$GPGGA,121519.200,6033.8025,N,09022.8933,E,1,10,1.0,1267.9,M,46.9,M,,*60
$GPGGA,121519.400,6033.8029,N,09022.8954,E,1,10,1.0,1267.9,M,46.9,M,,*6B
$GPGGA,121519.600,6033.8033,N,09022.8976,E,1,10,1.0,1267.2,M,46.9,M,,*69
$GPGGA,121519.800,6033.8037,N,09022.8998,E,1,10,1.0,1267.2,M,46.9,M,,*63
$GPGGA,121520.000,6033.8041,N,09022.9019,E,1,10,1.0,1267.2,M,46.9,M,,*61
$GPGGA,121520.200,6033.8045,N,09022.9041,E,1,10,1.0,1267.2,M,46.9,M,,*6A
$GPGGA,121520.400,6033.8049,N,09022.9062,E,1,10,1.0,1267.2,M,46.9,M,,*61
$GPGGA,121520.600,6033.8053,N,09022.9084,E,1,10,1.0,1266.4,M,46.9,M,,*67
$GPGGA,121520.800,6033.8057,N,09022.9105,E,1,10,1.0,1266.4,M,46.9,M,,*65
$GPGGA,121521.000,6033.8061,N,09022.9126,E,1,10,1.0,1266.4,M,46.9,M,,*68
$GPGGA,121521.200,6033.8064,N,09022.9148,E,1,10,1.0,1265.4,M,46.9,M,,*64
$GPGGA,121521.400,6033.8068,N,09022.9169,E,1,10,1.0,1265.4,M,46.9,M,,*6D
$GPGGA,121521.600,6033.8072,N,09022.9191,E,1,10,1.0,1265.4,M,46.9,M,,*63
$GPGGA,121521.800,6033.8076,N,09022.9212,E,1,10,1.0,1264.6,M,46.9,M,,*62
$GPGGA,121522.000,6033.8080,N,09022.9233,E,1,10,1.0,1264.6,M,46.9,M,,*63
$GPGGA,121522.200,6033.8084,N,09022.9255,E,1,10,1.0,1264.6,M,46.9,M,,*65
$GPGGA,121522.400,6033.8088,N,09022.9276,E,1,10,1.0,1264.6,M,46.9,M,,*6E
$GPGGA,121522.600,6033.8092,N,09022.9297,E,1,10,1.0,1264.6,M,46.9,M,,*68
$GPGGA,121522.800,6033.8096,N,09022.9318,E,1,10,1.0,1264.6,M,46.9,M,,*64
$GPGGA,121523.000,6033.8100,N,09022.9340,E,1,10,1.0,1263.8,M,46.9,M,,*67
$GPGGA,121523.200,6033.8104,N,09022.9361,E,1,10,1.0,1263.8,M,46.9,M,,*62
$GPGGA,121523.400,6033.8108,N,09022.9382,E,1,10,1.0,1263.8,M,46.9,M,,*65
$GPGGA,121523.600,6033.8112,N,09022.9403,E,1,10,1.0,1263.8,M,46.9,M,,*62
$GPGGA,121523.800,6033.8115,N,09022.9424,E,1,10,1.0,1263.8,M,46.9,M,,*6E
$GPGGA,121524.000,6033.8119,N,09022.9445,E,1,10,1.0,1262.9,M,46.9,M,,*6A
$GPGGA,121524.200,6033.8123,N,09022.9466,E,1,10,1.0,1262.9,M,46.9,M,,*60
$GPGGA,121524.400,6033.8127,N,09022.9487,E,1,10,1.0,1262.9,M,46.9,M,,*6D
$GPGGA,121524.600,6033.8131,N,09022.9509,E,1,10,1.0,1262.9,M,46.9,M,,*6F
$GPGGA,121524.800,6033.8135,N,09022.9530,E,1,10,1.0,1262.9,M,46.9,M,,*6F
$GPGGA,121525.000,6033.8139,N,09022.9550,E,1,10,1.0,1262.9,M,46.9,M,,*6C
$GPGGA,121525.200,6033.8143,N,09022.9571,E,1,10,1.0,1262.1,M,46.9,M,,*68
$GPGGA,121525.400,6033.8147,N,09022.9592,E,1,10,1.0,1262.1,M,46.9,M,,*67
$GPGGA,121525.600,6033.8151,N,09022.9613,E,1,10,1.0,1262.1,M,46.9,M,,*68
$GPGGA,121525.800,6033.8155,N,09022.9634,E,1,10,1.0,1262.1,M,46.9,M,,*67
$GPGGA,121526.000,6033.8159,N,09022.9655,E,1,10,1.0,1262.1,M,46.9,M,,*67
$GPGGA,121526.200,6033.8162,N,09022.9676,E,1,10,1.0,1262.1,M,46.9,M,,*6C
$GPGGA,121526.400,6033.8166,N,09022.9697,E,1,10,1.0,1261.2,M,46.9,M,,*61
$GPGGA,121526.600,6033.8170,N,09022.9717,E,1,10,1.0,1261.2,M,46.9,M,,*6D
$GPGGA,121526.800,6033.8174,N,09022.9738,E,1,10,1.0,1261.2,M,46.9,M,,*6A
$GPGGA,121527.000,6033.8178,N,09022.9759,E,1,10,1.0,1261.2,M,46.9,M,,*68
$GPGGA,121527.200,6033.8182,N,09022.9780,E,1,10,1.0,1261.2,M,46.9,M,,*6B
$GPGGA,121527.400,6033.8186,N,09022.9800,E,1,10,1.0,1259.1,M,46.9,M,,*66
$GPGGA,121527.600,6033.8190,N,09022.9821,E,1,10,1.0,1259.1,M,46.9,M,,*60
$GPGGA,121527.800,6033.8194,N,09022.9842,E,1,10,1.0,1259.1,M,46.9,M,,*6F
$GPGGA,121528.000,6033.8198,N,09022.9862,E,1,10,1.0,1259.1,M,46.9,M,,*66
$GPGGA,121528.200,6033.8202,N,09022.9883,E,1,10,1.0,1259.1,M,46.9,M,,*6B
$GPGGA,121528.400,6033.8205,N,09022.9903,E,1,10,1.0,1259.1,M,46.9,M,,*63
$GPGGA,121528.600,6033.8209,N,09022.9924,E,1,10,1.0,1258.2,M,46.9,M,,*6A
$GPGGA,121528.800,6033.8213,N,09022.9944,E,1,10,1.0,1258.2,M,46.9,M,,*69
$GPGGA,121529.000,6033.8217,N,09022.9965,E,1,10,1.0,1258.2,M,46.9,M,,*67
$GPGGA,121529.200,6033.8221,N,09022.9985,E,1,10,1.0,1258.2,M,46.9,M,,*6E
$GPGGA,121529.400,6033.8225,N,09023.0006,E,1,10,1.0,1258.2,M,46.9,M,,*66
$GPGGA,121529.600,6033.8229,N,09023.0026,E,1,10,1.0,1258.2,M,46.9,M,,*6A
$GPGGA,121529.800,6033.8233,N,09023.0046,E,1,10,1.0,1257.2,M,46.9,M,,*66
$GPGGA,121530.000,6033.8237,N,09023.0067,E,1,10,1.0,1257.2,M,46.9,M,,*61
$GPGGA,121530.200,6033.8241,N,09023.0087,E,1,10,1.0,1257.2,M,46.9,M,,*6C
$GPGGA,121530.400,6033.8245,N,09023.0107,E,1,10,1.0,1257.2,M,46.9,M,,*67
$GPGGA,121530.600,6033.8248,N,09023.0127,E,1,10,1.0,1257.2,M,46.9,M,,*6A
$GPGGA,121530.800,6033.8252,N,09023.0148,E,1,10,1.0,1257.2,M,46.9,M,,*66
$GPGGA,121531.000,6033.8256,N,09023.0168,E,1,10,1.0,1256.2,M,46.9,M,,*68
$GPGGA,121531.200,6033.8260,N,09023.0188,E,1,10,1.0,1256.2,M,46.9,M,,*61
$GPGGA,121531.400,6033.8264,N,09023.0208,E,1,10,1.0,1256.2,M,46.9,M,,*68
$GPGGA,121531.600,6033.8268,N,09023.0228,E,1,10,1.0,1256.2,M,46.9,M,,*64
$GPGGA,121531.800,6033.8272,N,09023.0248,E,1,10,1.0,1256.2,M,46.9,M,,*67
$GPGGA,121532.000,6033.8276,N,09023.0268,E,1,10,1.0,1256.2,M,46.9,M,,*6A
$GPGGA,121532.200,6033.8280,N,09023.0288,E,1,10,1.0,1255.2,M,46.9,M,,*6C
$GPGGA,121532.400,6033.8284,N,09023.0308,E,1,10,1.0,1255.2,M,46.9,M,,*67
$GPGGA,121532.600,6033.8288,N,09023.0328,E,1,10,1.0,1255.2,M,46.9,M,,*6B
$GPGGA,121532.800,6033.8291,N,09023.0348,E,1,10,1.0,1255.2,M,46.9,M,,*6B
$GPGGA,121533.000,6033.8295,N,09023.0368,E,1,10,1.0,1255.2,M,46.9,M,,*64
$GPGGA,121533.200,6033.8299,N,09023.0388,E,1,10,1.0,1255.2,M,46.9,M,,*64
$GPGGA,121533.400,6033.8303,N,09023.0407,E,1,10,1.0,1254.1,M,46.9,M,,*62
$GPGGA,121533.600,6033.8307,N,09023.0427,E,1,10,1.0,1253.0,M,46.9,M,,*60
$GPGGA,121533.800,6033.8311,N,09023.0447,E,1,10,1.0,1253.0,M,46.9,M,,*6F
$GPGGA,121534.000,6033.8315,N,09023.0467,E,1,10,1.0,1253.0,M,46.9,M,,*66
$GPGGA,121534.200,6033.8319,N,09023.0486,E,1,10,1.0,1253.0,M,46.9,M,,*67
$GPGGA,121534.400,6033.8323,N,09023.0506,E,1,10,1.0,1253.0,M,46.9,M,,*61
$GPGGA,121534.600,6033.8327,N,09023.0526,E,1,10,1.0,1251.9,M,46.9,M,,*6E
$GPGGA,121534.800,6033.8330,N,09023.0545,E,1,10,1.0,1251.9,M,46.9,M,,*63
$GPGGA,121535.000,6033.8334,N,09023.0565,E,1,10,1.0,1251.9,M,46.9,M,,*6C
$GPGGA,121535.200,6033.8338,N,09023.0584,E,1,10,1.0,1251.9,M,46.9,M,,*6D
$GPGGA,121535.400,6033.8342,N,09023.0604,E,1,10,1.0,1251.9,M,46.9,M,,*6D
$GPGGA,121535.600,6033.8346,N,09023.0623,E,1,10,1.0,1251.9,M,46.9,M,,*6E
$GPGGA,121535.800,6033.8350,N,09023.0643,E,1,10,1.0,1250.8,M,46.9,M,,*61
$GPGGA,121536.000,6033.8354,N,09023.0662,E,1,10,1.0,1250.8,M,46.9,M,,*6D
$GPGGA,121536.200,6033.8358,N,09023.0681,E,1,10,1.0,1250.8,M,46.9,M,,*6E
$GPGGA,121536.400,6033.8362,N,09023.0701,E,1,10,1.0,1250.8,M,46.9,M,,*68
$GPGGA,121536.600,6033.8365,N,09023.0720,E,1,10,1.0,1250.8,M,46.9,M,,*6E
$GPGGA,121536.800,6033.8369,N,09023.0739,E,1,10,1.0,1250.8,M,46.9,M,,*64
$GPGGA,121537.000,6033.8373,N,09023.0758,E,1,10,1.0,1250.8,M,46.9,M,,*61
$GPGGA,121537.200,6033.8377,N,09023.0778,E,1,10,1.0,1249.7,M,46.9,M,,*62
$GPGGA,121537.400,6033.8381,N,09023.0797,E,1,10,1.0,1249.7,M,46.9,M,,*6C
$GPGGA,121537.600,6033.8385,N,09023.0816,E,1,10,1.0,1249.7,M,46.9,M,,*6C
$GPGGA,121537.800,6033.8389,N,09023.0835,E,1,10,1.0,1249.7,M,46.9,M,,*6F
$GPGGA,121538.000,6033.8393,N,09023.0854,E,1,10,1.0,1249.7,M,46.9,M,,*64
$GPGGA,121538.200,6033.8397,N,09023.0873,E,1,10,1.0,1249.7,M,46.9,M,,*67
$GPGGA,121538.400,6033.8401,N,09023.0892,E,1,10,1.0,1248.6,M,46.9,M,,*66
$GPGGA,121538.600,6033.8404,N,09023.0911,E,1,10,1.0,1248.6,M,46.9,M,,*6B
$GPGGA,121538.800,6033.8408,N,09023.0930,E,1,10,1.0,1248.6,M,46.9,M,,*6A
$GPGGA,121539.000,6033.8412,N,09023.0949,E,1,10,1.0,1248.6,M,46.9,M,,*66
$GPGGA,121539.200,6033.8416,N,09023.0968,E,1,10,1.0,1248.6,M,46.9,M,,*63
$GPGGA,121539.400,6033.8420,N,09023.0986,E,1,10,1.0,1248.6,M,46.9,M,,*60
$GPGGA,121539.600,6033.8424,N,09023.1005,E,1,10,1.0,1247.5,M,46.9,M,,*69
$GPGGA,121539.800,6033.8428,N,09023.1024,E,1,10,1.0,1246.3,M,46.9,M,,*6F
$GPGGA,121540.000,6033.8432,N,09023.1043,E,1,10,1.0,1246.3,M,46.9,M,,*63
$GPGGA,121540.200,6033.8436,N,09023.1061,E,1,10,1.0,1246.3,M,46.9,M,,*65
$GPGGA,121540.400,6033.8439,N,09023.1080,E,1,10,1.0,1246.3,M,46.9,M,,*63
$GPGGA,121540.600,6033.8443,N,09023.1098,E,1,10,1.0,1246.3,M,46.9,M,,*65
$GPGGA,121540.800,6033.8447,N,09023.1117,E,1,10,1.0,1246.3,M,46.9,M,,*69
$GPGGA,121541.000,6033.8451,N,09023.1135,E,1,10,1.0,1245.2,M,46.9,M,,*65
$GPGGA,121541.200,6033.8455,N,09023.1154,E,1,10,1.0,1245.2,M,46.9,M,,*64
$GPGGA,121541.400,6033.8459,N,09023.1172,E,1,10,1.0,1245.2,M,46.9,M,,*6A
$GPGGA,121541.600,6033.8463,N,09023.1191,E,1,10,1.0,1245.2,M,46.9,M,,*6C
$GPGGA,121541.800,6033.8467,N,09023.1209,E,1,10,1.0,1245.2,M,46.9,M,,*64
$GPGGA,121542.000,6033.8471,N,09023.1227,E,1,10,1.0,1245.2,M,46.9,M,,*64
$GPGGA,121542.200,6033.8474,N,09023.1246,E,1,10,1.0,1244.1,M,46.9,M,,*66
$GPGGA,121542.400,6033.8478,N,09023.1264,E,1,10,1.0,1244.1,M,46.9,M,,*6C
$GPGGA,121542.600,6033.8482,N,09023.1282,E,1,10,1.0,1244.1,M,46.9,M,,*63
$GPGGA,121542.800,6033.8486,N,09023.1300,E,1,10,1.0,1244.1,M,46.9,M,,*62
$GPGGA,121543.000,6033.8490,N,09023.1318,E,1,10,1.0,1244.1,M,46.9,M,,*65
$GPGGA,121543.200,6033.8494,N,09023.1337,E,1,10,1.0,1244.1,M,46.9,M,,*6E
$GPGGA,121543.400,6033.8498,N,09023.1355,E,1,10,1.0,1244.1,M,46.9,M,,*60
$GPGGA,121543.600,6033.8502,N,09023.1373,E,1,10,1.0,1242.9,M,46.9,M,,*6A
$GPGGA,121543.800,6033.8505,N,09023.1391,E,1,10,1.0,1242.9,M,46.9,M,,*6F
$GPGGA,121544.000,6033.8509,N,09023.1409,E,1,10,1.0,1242.9,M,46.9,M,,*6A
$GPGGA,121544.200,6033.8513,N,09023.1426,E,1,10,1.0,1242.9,M,46.9,M,,*6E
$GPGGA,121544.400,6033.8517,N,09023.1444,E,1,10,1.0,1242.9,M,46.9,M,,*68
$GPGGA,121544.600,6033.8521,N,09023.1462,E,1,10,1.0,1242.9,M,46.9,M,,*6B
$GPGGA,121544.800,6033.8525,N,09023.1480,E,1,10,1.0,1242.9,M,46.9,M,,*6D
$GPGGA,121545.000,6033.8529,N,09023.1498,E,1,10,1.0,1241.8,M,46.9,M,,*63
$GPGGA,121545.200,6033.8533,N,09023.1515,E,1,10,1.0,1241.8,M,46.9,M,,*6E
$GPGGA,121545.400,6033.8537,N,09023.1533,E,1,10,1.0,1241.8,M,46.9,M,,*68
$GPGGA,121545.600,6033.8540,N,09023.1551,E,1,10,1.0,1241.8,M,46.9,M,,*6E
$GPGGA,121545.800,6033.8544,N,09023.1568,E,1,10,1.0,1241.8,M,46.9,M,,*6E
$GPGGA,121546.000,6033.8548,N,09023.1586,E,1,10,1.0,1240.6,M,46.9,M,,*66
$GPGGA,121546.200,6033.8552,N,09023.1603,E,1,10,1.0,1239.4,M,46.9,M,,*6D
$GPGGA,121546.400,6033.8556,N,09023.1621,E,1,10,1.0,1239.4,M,46.9,M,,*6F
$GPGGA,121546.600,6033.8560,N,09023.1638,E,1,10,1.0,1239.4,M,46.9,M,,*60
$GPGGA,121546.800,6033.8564,N,09023.1655,E,1,10,1.0,1239.4,M,46.9,M,,*61
$GPGGA,121547.000,6033.8568,N,09023.1673,E,1,10,1.0,1239.4,M,46.9,M,,*60
$GPGGA,121547.200,6033.8571,N,09023.1690,E,1,10,1.0,1239.4,M,46.9,M,,*67
$GPGGA,121547.400,6033.8575,N,09023.1707,E,1,10,1.0,1239.4,M,46.9,M,,*6A
$GPGGA,121547.600,6033.8579,N,09023.1725,E,1,10,1.0,1238.3,M,46.9,M,,*62
$GPGGA,121547.800,6033.8583,N,09023.1742,E,1,10,1.0,1238.3,M,46.9,M,,*68
$GPGGA,121548.000,6033.8587,N,09023.1759,E,1,10,1.0,1238.3,M,46.9,M,,*61
$GPGGA,121548.200,6033.8591,N,09023.1776,E,1,10,1.0,1238.3,M,46.9,M,,*69
$GPGGA,121548.400,6033.8595,N,09023.1793,E,1,10,1.0,1238.3,M,46.9,M,,*60
$GPGGA,121548.600,6033.8599,N,09023.1810,E,1,10,1.0,1238.3,M,46.9,M,,*6A
$GPGGA,121548.800,6033.8602,N,09023.1827,E,1,10,1.0,1238.3,M,46.9,M,,*61
$GPGGA,121549.000,6033.8606,N,09023.1844,E,1,10,1.0,1237.1,M,46.9,M,,*64
$GPGGA,121549.200,6033.8610,N,09023.1861,E,1,10,1.0,1237.1,M,46.9,M,,*66
$GPGGA,121549.400,6033.8614,N,09023.1878,E,1,10,1.0,1237.1,M,46.9,M,,*6C
$GPGGA,121549.600,6033.8618,N,09023.1894,E,1,10,1.0,1237.1,M,46.9,M,,*60
$GPGGA,121549.800,6033.8622,N,09023.1911,E,1,10,1.0,1237.1,M,46.9,M,,*6B
$GPGGA,121550.000,6033.8626,N,09023.1928,E,1,10,1.0,1237.1,M,46.9,M,,*65
$GPGGA,121550.200,6033.8629,N,09023.1945,E,1,10,1.0,1237.1,M,46.9,M,,*63
$GPGGA,121550.400,6033.8633,N,09023.1961,E,1,10,1.0,1236.0,M,46.9,M,,*68
$GPGGA,121550.600,6033.8637,N,09023.1978,E,1,10,1.0,1236.0,M,46.9,M,,*66
$GPGGA,121550.800,6033.8641,N,09023.1994,E,1,10,1.0,1236.0,M,46.9,M,,*6B
$GPGGA,121551.000,6033.8645,N,09023.2011,E,1,10,1.0,1236.0,M,46.9,M,,*61
$GPGGA,121551.200,6033.8649,N,09023.2027,E,1,10,1.0,1236.0,M,46.9,M,,*6A
$GPGGA,121551.400,6033.8653,N,09023.2044,E,1,10,1.0,1236.0,M,46.9,M,,*62
$GPGGA,121551.600,6033.8657,N,09023.2060,E,1,10,1.0,1236.0,M,46.9,M,,*62
$GPGGA,121551.800,6033.8660,N,09023.2076,E,1,10,1.0,1236.0,M,46.9,M,,*6F
$GPGGA,121552.000,6033.8664,N,09023.2093,E,1,10,1.0,1234.8,M,46.9,M,,*61
$GPGGA,121552.200,6033.8668,N,09023.2109,E,1,10,1.0,1233.6,M,46.9,M,,*64
$GPGGA,121552.400,6033.8672,N,09023.2125,E,1,10,1.0,1233.6,M,46.9,M,,*67
$GPGGA,121552.600,6033.8676,N,09023.2141,E,1,10,1.0,1233.6,M,46.9,M,,*63
$GPGGA,121552.800,6033.8680,N,09023.2157,E,1,10,1.0,1233.6,M,46.9,M,,*63
$GPGGA,121553.000,6033.8684,N,09023.2174,E,1,10,1.0,1233.6,M,46.9,M,,*6F
$GPGGA,121553.200,6033.8687,N,09023.2190,E,1,10,1.0,1233.6,M,46.9,M,,*64
$GPGGA,121553.400,6033.8691,N,09023.2206,E,1,10,1.0,1232.5,M,46.9,M,,*6B
$GPGGA,121553.600,6033.8695,N,09023.2221,E,1,10,1.0,1232.5,M,46.9,M,,*68
$GPGGA,121553.800,6033.8699,N,09023.2237,E,1,10,1.0,1232.5,M,46.9,M,,*6D
$GPGGA,121554.000,6033.8703,N,09023.2253,E,1,10,1.0,1232.5,M,46.9,M,,*62
$GPGGA,121554.200,6033.8707,N,09023.2269,E,1,10,1.0,1232.5,M,46.9,M,,*6D
$GPGGA,121554.400,6033.8711,N,09023.2285,E,1,10,1.0,1232.5,M,46.9,M,,*6E
$GPGGA,121554.600,6033.8714,N,09023.2300,E,1,10,1.0,1232.5,M,46.9,M,,*65
$GPGGA,121554.800,6033.8718,N,09023.2316,E,1,10,1.0,1232.5,M,46.9,M,,*60
$GPGGA,121555.000,6033.8722,N,09023.2332,E,1,10,1.0,1231.4,M,46.9,M,,*64
$GPGGA,121555.200,6033.8726,N,09023.2347,E,1,10,1.0,1231.4,M,46.9,M,,*60
$GPGGA,121555.400,6033.8730,N,09023.2363,E,1,10,1.0,1231.4,M,46.9,M,,*67
$GPGGA,121555.600,6033.8734,N,09023.2378,E,1,10,1.0,1231.4,M,46.9,M,,*6B
$GPGGA,121555.800,6033.8738,N,09023.2394,E,1,10,1.0,1231.4,M,46.9,M,,*6B
$GPGGA,121556.000,6033.8741,N,09023.2409,E,1,10,1.0,1231.4,M,46.9,M,,*6D
$GPGGA,121556.200,6033.8745,N,09023.2425,E,1,10,1.0,1231.4,M,46.9,M,,*65
$GPGGA,121556.400,6033.8749,N,09023.2440,E,1,10,1.0,1231.4,M,46.9,M,,*6C
$GPGGA,121556.600,6033.8753,N,09023.2455,E,1,10,1.0,1230.2,M,46.9,M,,*66
$GPGGA,121556.800,6033.8757,N,09023.2470,E,1,10,1.0,1230.2,M,46.9,M,,*6B
$GPGGA,121557.000,6033.8761,N,09023.2486,E,1,10,1.0,1230.2,M,46.9,M,,*6E
$GPGGA,121557.200,6033.8765,N,09023.2501,E,1,10,1.0,1230.2,M,46.9,M,,*66
$GPGGA,121557.400,6033.8768,N,09023.2516,E,1,10,1.0,1230.2,M,46.9,M,,*6B
$GPGGA,121557.600,6033.8772,N,09023.2531,E,1,10,1.0,1230.2,M,46.9,M,,*67
$GPGGA,121557.800,6033.8776,N,09023.2546,E,1,10,1.0,1230.2,M,46.9,M,,*6D
$GPGGA,121558.000,6033.8780,N,09023.2561,E,1,10,1.0,1229.1,M,46.9,M,,*6D
$GPGGA,121558.200,6033.8784,N,09023.2576,E,1,10,1.0,1229.1,M,46.9,M,,*6D
$GPGGA,121558.400,6033.8788,N,09023.2591,E,1,10,1.0,1227.9,M,46.9,M,,*68
$GPGGA,121558.600,6033.8792,N,09023.2605,E,1,10,1.0,1227.9,M,46.9,M,,*6F
$GPGGA,121558.800,6033.8795,N,09023.2620,E,1,10,1.0,1227.9,M,46.9,M,,*61
$GPGGA,121559.000,6033.8799,N,09023.2635,E,1,10,1.0,1227.9,M,46.9,M,,*60
$GPGGA,121559.200,6033.8803,N,09023.2649,E,1,10,1.0,1227.9,M,46.9,M,,*65
$GPGGA,121559.400,6033.8807,N,09023.2664,E,1,10,1.0,1227.9,M,46.9,M,,*68
$GPGGA,121559.600,6033.8811,N,09023.2679,E,1,10,1.0,1227.9,M,46.9,M,,*61
$GPGGA,121559.800,6033.8815,N,09023.2693,E,1,10,1.0,1226.8,M,46.9,M,,*6F
$GPGGA,121600.000,6033.8819,N,09023.2708,E,1,10,1.0,1226.8,M,46.9,M,,*67
$GPGGA,121600.200,6033.8822,N,09023.2722,E,1,10,1.0,1226.8,M,46.9,M,,*65
$GPGGA,121600.400,6033.8826,N,09023.2737,E,1,10,1.0,1226.8,M,46.9,M,,*63
$GPGGA,121600.600,6033.8830,N,09023.2751,E,1,10,1.0,1226.8,M,46.9,M,,*66
$GPGGA,121600.800,6033.8834,N,09023.2765,E,1,10,1.0,1226.8,M,46.9,M,,*6B
$GPGGA,121601.000,6033.8838,N,09023.2779,E,1,10,1.0,1226.8,M,46.9,M,,*63
$GPGGA,121601.200,6033.8842,N,09023.2794,E,1,10,1.0,1226.8,M,46.9,M,,*6F
$GPGGA,121601.400,6033.8845,N,09023.2808,E,1,10,1.0,1225.7,M,46.9,M,,*68
$GPGGA,121601.600,6033.8849,N,09023.2822,E,1,10,1.0,1225.7,M,46.9,M,,*6E
$GPGGA,121601.800,6033.8853,N,09023.2836,E,1,10,1.0,1225.7,M,46.9,M,,*6E
$GPGGA,121602.000,6033.8857,N,09023.2850,E,1,10,1.0,1225.7,M,46.9,M,,*61
$GPGGA,121602.200,6033.8861,N,09023.2864,E,1,10,1.0,1225.7,M,46.9,M,,*61
$GPGGA,121602.400,6033.8865,N,09023.2878,E,1,10,1.0,1225.7,M,46.9,M,,*6E
$GPGGA,121602.600,6033.8869,N,09023.2892,E,1,10,1.0,1225.7,M,46.9,M,,*64
$GPGGA,121602.800,6033.8872,N,09023.2906,E,1,10,1.0,1225.7,M,46.9,M,,*6C
$GPGGA,121603.000,6033.8876,N,09023.2919,E,1,10,1.0,1225.7,M,46.9,M,,*6F
$GPGGA,121603.200,6033.8880,N,09023.2933,E,1,10,1.0,1224.7,M,46.9,M,,*6D
$GPGGA,121603.400,6033.8884,N,09023.2947,E,1,10,1.0,1224.7,M,46.9,M,,*6C
$GPGGA,121603.600,6033.8888,N,09023.2960,E,1,10,1.0,1224.7,M,46.9,M,,*67
$GPGGA,121603.800,6033.8892,N,09023.2974,E,1,10,1.0,1224.7,M,46.9,M,,*67
$GPGGA,121604.000,6033.8895,N,09023.2987,E,1,10,1.0,1224.7,M,46.9,M,,*63
$GPGGA,121604.200,6033.8899,N,09023.3001,E,1,10,1.0,1224.7,M,46.9,M,,*6B
$GPGGA,121604.400,6033.8903,N,09023.3014,E,1,10,1.0,1224.7,M,46.9,M,,*6B
$GPGGA,121604.600,6033.8907,N,09023.3028,E,1,10,1.0,1223.4,M,46.9,M,,*66
$GPGGA,121604.800,6033.8911,N,09023.3041,E,1,10,1.0,1222.4,M,46.9,M,,*61
$GPGGA,121605.000,6033.8915,N,09023.3054,E,1,10,1.0,1222.4,M,46.9,M,,*68
$GPGGA,121605.200,6033.8918,N,09023.3068,E,1,10,1.0,1222.4,M,46.9,M,,*68
$GPGGA,121605.400,6033.8922,N,09023.3081,E,1,10,1.0,1222.4,M,46.9,M,,*60
$GPGGA,121605.600,6033.8926,N,09023.3094,E,1,10,1.0,1222.4,M,46.9,M,,*62
$GPGGA,121605.800,6033.8930,N,09023.3107,E,1,10,1.0,1222.4,M,46.9,M,,*60
$GPGGA,121606.000,6033.8934,N,09023.3120,E,1,10,1.0,1222.4,M,46.9,M,,*6A
$GPGGA,121606.200,6033.8938,N,09023.3133,E,1,10,1.0,1222.4,M,46.9,M,,*66
$GPGGA,121606.400,6033.8941,N,09023.3146,E,1,10,1.0,1222.4,M,46.9,M,,*6C
$GPGGA,121606.600,6033.8945,N,09023.3159,E,1,10,1.0,1222.4,M,46.9,M,,*64
$GPGGA,121606.800,6033.8949,N,09023.3172,E,1,10,1.0,1221.3,M,46.9,M,,*6B
$GPGGA,121607.000,6033.8953,N,09023.3185,E,1,10,1.0,1221.3,M,46.9,M,,*61
$GPGGA,121607.200,6033.8957,N,09023.3198,E,1,10,1.0,1221.3,M,46.9,M,,*6B
$GPGGA,121607.400,6033.8961,N,09023.3210,E,1,10,1.0,1221.3,M,46.9,M,,*6B
$GPGGA,121607.600,6033.8964,N,09023.3223,E,1,10,1.0,1221.3,M,46.9,M,,*6C
$GPGGA,121607.800,6033.8968,N,09023.3236,E,1,10,1.0,1221.3,M,46.9,M,,*6A
$GPGGA,121608.000,6033.8972,N,09023.3248,E,1,10,1.0,1221.3,M,46.9,M,,*6F
$GPGGA,121608.200,6033.8976,N,09023.3261,E,1,10,1.0,1221.3,M,46.9,M,,*62
$GPGGA,121608.400,6033.8980,N,09023.3273,E,1,10,1.0,1221.3,M,46.9,M,,*6E
$GPGGA,121608.600,6033.8984,N,09023.3286,E,1,10,1.0,1220.4,M,46.9,M,,*64
$GPGGA,121608.800,6033.8987,N,09023.3298,E,1,10,1.0,1220.4,M,46.9,M,,*66
$GPGGA,121609.000,6033.8991,N,09023.3310,E,1,10,1.0,1220.4,M,46.9,M,,*69
$GPGGA,121609.200,6033.8995,N,09023.3323,E,1,10,1.0,1220.4,M,46.9,M,,*6F
$GPGGA,121609.400,6033.8999,N,09023.3335,E,1,10,1.0,1220.4,M,46.9,M,,*62
$GPGGA,121609.600,6033.9003,N,09023.3347,E,1,10,1.0,1220.4,M,46.9,M,,*6E
$GPGGA,121609.800,6033.9007,N,09023.3359,E,1,10,1.0,1220.4,M,46.9,M,,*6B
$GPGGA,121610.000,6033.9010,N,09023.3371,E,1,10,1.0,1220.4,M,46.9,M,,*67
$GPGGA,121610.200,6033.9014,N,09023.3383,E,1,10,1.0,1220.4,M,46.9,M,,*6C
$GPGGA,121610.400,6033.9018,N,09023.3395,E,1,10,1.0,1220.4,M,46.9,M,,*61
$GPGGA,121610.600,6033.9022,N,09023.3407,E,1,10,1.0,1219.4,M,46.9,M,,*6C
$GPGGA,121610.800,6033.9026,N,09023.3419,E,1,10,1.0,1218.1,M,46.9,M,,*6D
$GPGGA,121611.000,6033.9029,N,09023.3431,E,1,10,1.0,1218.1,M,46.9,M,,*61
$GPGGA,121611.200,6033.9033,N,09023.3443,E,1,10,1.0,1218.1,M,46.9,M,,*6D
$GPGGA,121611.400,6033.9037,N,09023.3454,E,1,10,1.0,1218.1,M,46.9,M,,*69
$GPGGA,121611.600,6033.9041,N,09023.3466,E,1,10,1.0,1218.1,M,46.9,M,,*6B
$GPGGA,121611.800,6033.9045,N,09023.3478,E,1,10,1.0,1218.1,M,46.9,M,,*6E
$GPGGA,121612.000,6033.9049,N,09023.3489,E,1,10,1.0,1218.1,M,46.9,M,,*67
$GPGGA,121612.200,6033.9052,N,09023.3501,E,1,10,1.0,1218.1,M,46.9,M,,*6E
$GPGGA,121612.400,6033.9056,N,09023.3512,E,1,10,1.0,1218.1,M,46.9,M,,*6E
$GPGGA,121612.600,6033.9060,N,09023.3524,E,1,10,1.0,1217.2,M,46.9,M,,*60
$GPGGA,121612.800,6033.9064,N,09023.3535,E,1,10,1.0,1217.2,M,46.9,M,,*6A
$GPGGA,121613.000,6033.9068,N,09023.3547,E,1,10,1.0,1217.2,M,46.9,M,,*6A
$GPGGA,121613.200,6033.9071,N,09023.3558,E,1,10,1.0,1217.2,M,46.9,M,,*6E
$GPGGA,121613.400,6033.9075,N,09023.3569,E,1,10,1.0,1217.2,M,46.9,M,,*6E
$GPGGA,121613.600,6033.9079,N,09023.3580,E,1,10,1.0,1217.2,M,46.9,M,,*67
$GPGGA,121613.800,6033.9083,N,09023.3591,E,1,10,1.0,1217.2,M,46.9,M,,*6C
$GPGGA,121614.000,6033.9087,N,09023.3603,E,1,10,1.0,1217.2,M,46.9,M,,*6F
$GPGGA,121614.200,6033.9091,N,09023.3614,E,1,10,1.0,1217.2,M,46.9,M,,*6C
$GPGGA,121614.400,6033.9094,N,09023.3625,E,1,10,1.0,1217.2,M,46.9,M,,*6D
$GPGGA,121614.600,6033.9098,N,09023.3636,E,1,10,1.0,1217.2,M,46.9,M,,*61
$GPGGA,121614.800,6033.9102,N,09023.3646,E,1,10,1.0,1216.2,M,46.9,M,,*6B
$GPGGA,121615.000,6033.9106,N,09023.3657,E,1,10,1.0,1216.2,M,46.9,M,,*66
$GPGGA,121615.200,6033.9110,N,09023.3668,E,1,10,1.0,1216.2,M,46.9,M,,*6F
$GPGGA,121615.400,6033.9113,N,09023.3679,E,1,10,1.0,1216.2,M,46.9,M,,*6A
$GPGGA,121615.600,6033.9117,N,09023.3690,E,1,10,1.0,1216.2,M,46.9,M,,*6B
$GPGGA,121615.800,6033.9121,N,09023.3700,E,1,10,1.0,1216.2,M,46.9,M,,*68
$GPGGA,121616.000,6033.9125,N,09023.3711,E,1,10,1.0,1216.2,M,46.9,M,,*67
$GPGGA,121616.200,6033.9129,N,09023.3721,E,1,10,1.0,1216.2,M,46.9,M,,*6A
$GPGGA,121616.400,6033.9132,N,09023.3732,E,1,10,1.0,1216.2,M,46.9,M,,*64
$GPGGA,121616.600,6033.9136,N,09023.3742,E,1,10,1.0,1216.2,M,46.9,M,,*65
$GPGGA,121616.800,6033.9140,N,09023.3753,E,1,10,1.0,1216.2,M,46.9,M,,*6A
$GPGGA,121617.000,6033.9144,N,09023.3763,E,1,10,1.0,1215.4,M,46.9,M,,*61
$GPGGA,121617.200,6033.9148,N,09023.3774,E,1,10,1.0,1214.1,M,46.9,M,,*6D
$GPGGA,121617.400,6033.9152,N,09023.3784,E,1,10,1.0,1214.1,M,46.9,M,,*6F
$GPGGA,121617.600,6033.9155,N,09023.3794,E,1,10,1.0,1214.1,M,46.9,M,,*6B
$GPGGA,121617.800,6033.9159,N,09023.3804,E,1,10,1.0,1214.1,M,46.9,M,,*6F
$GPGGA,121618.000,6033.9163,N,09023.3814,E,1,10,1.0,1214.1,M,46.9,M,,*60
$GPGGA,121618.200,6033.9167,N,09023.3824,E,1,10,1.0,1214.1,M,46.9,M,,*65
$GPGGA,121618.400,6033.9171,N,09023.3834,E,1,10,1.0,1214.1,M,46.9,M,,*65
$GPGGA,121618.600,6033.9174,N,09023.3844,E,1,10,1.0,1214.1,M,46.9,M,,*65
$GPGGA,121618.800,6033.9178,N,09023.3854,E,1,10,1.0,1214.1,M,46.9,M,,*66
$GPGGA,121619.000,6033.9182,N,09023.3864,E,1,10,1.0,1214.1,M,46.9,M,,*69
$GPGGA,121619.200,6033.9186,N,09023.3874,E,1,10,1.0,1214.1,M,46.9,M,,*6E
$GPGGA,121619.400,6033.9190,N,09023.3884,E,1,10,1.0,1213.2,M,46.9,M,,*64
$GPGGA,121619.600,6033.9193,N,09023.3893,E,1,10,1.0,1213.2,M,46.9,M,,*63
$GPGGA,121619.800,6033.9197,N,09023.3903,E,1,10,1.0,1213.2,M,46.9,M,,*61
$GPGGA,121620.000,6033.9201,N,09023.3913,E,1,10,1.0,1213.2,M,46.9,M,,*6E
$GPGGA,121620.200,6033.9205,N,09023.3922,E,1,10,1.0,1213.2,M,46.9,M,,*6A
$GPGGA,121620.400,6033.9209,N,09023.3932,E,1,10,1.0,1213.2,M,46.9,M,,*61
$GPGGA,121620.600,6033.9212,N,09023.3941,E,1,10,1.0,1213.2,M,46.9,M,,*6D
$GPGGA,121620.800,6033.9216,N,09023.3951,E,1,10,1.0,1213.2,M,46.9,M,,*66
$GPGGA,121621.000,6033.9220,N,09023.3960,E,1,10,1.0,1213.2,M,46.9,M,,*68
$GPGGA,121621.200,6033.9224,N,09023.3969,E,1,10,1.0,1213.2,M,46.9,M,,*67
$GPGGA,121621.400,6033.9228,N,09023.3979,E,1,10,1.0,1213.2,M,46.9,M,,*6C
$GPGGA,121621.600,6033.9231,N,09023.3988,E,1,10,1.0,1213.2,M,46.9,M,,*68
$GPGGA,121621.800,6033.9235,N,09023.3997,E,1,10,1.0,1213.2,M,46.9,M,,*6C
$GPGGA,121622.000,6033.9239,N,09023.4006,E,1,10,1.0,1212.4,M,46.9,M,,*6A
$GPGGA,121622.200,6033.9243,N,09023.4015,E,1,10,1.0,1212.4,M,46.9,M,,*67
$GPGGA,121622.400,6033.9247,N,09023.4024,E,1,10,1.0,1212.4,M,46.9,M,,*67
$GPGGA,121622.600,6033.9250,N,09023.4033,E,1,10,1.0,1212.4,M,46.9,M,,*65
$GPGGA,121622.800,6033.9254,N,09023.4042,E,1,10,1.0,1212.4,M,46.9,M,,*69
$GPGGA,121623.000,6033.9258,N,09023.4051,E,1,10,1.0,1212.4,M,46.9,M,,*6E
$GPGGA,121623.200,6033.9262,N,09023.4060,E,1,10,1.0,1212.4,M,46.9,M,,*67
$GPGGA,121623.400,6033.9265,N,09023.4069,E,1,10,1.0,1211.1,M,46.9,M,,*69
$GPGGA,121623.600,6033.9269,N,09023.4078,E,1,10,1.0,1211.1,M,46.9,M,,*67
$GPGGA,121623.800,6033.9273,N,09023.4086,E,1,10,1.0,1211.1,M,46.9,M,,*63
$GPGGA,121624.000,6033.9277,N,09023.4095,E,1,10,1.0,1211.1,M,46.9,M,,*6A
$GPGGA,121624.200,6033.9281,N,09023.4104,E,1,10,1.0,1211.1,M,46.9,M,,*68
$GPGGA,121624.400,6033.9284,N,09023.4112,E,1,10,1.0,1211.1,M,46.9,M,,*6C
$GPGGA,121624.600,6033.9288,N,09023.4121,E,1,10,1.1,1210.3,M,46.9,M,,*60
$GPGGA,121624.800,6033.9292,N,09023.4129,E,1,10,1.1,1210.3,M,46.9,M,,*6D
$GPGGA,121625.000,6033.9296,N,09023.4138,E,1,10,1.1,1210.3,M,46.9,M,,*60
$GPGGA,121625.200,6033.9300,N,09023.4146,E,1,10,1.1,1210.3,M,46.9,M,,*65
$GPGGA,121625.400,6033.9303,N,09023.4154,E,1,10,1.1,1210.3,M,46.9,M,,*63
$GPGGA,121625.600,6033.9307,N,09023.4162,E,1,10,1.1,1210.3,M,46.9,M,,*60
$GPGGA,121625.800,6033.9311,N,09023.4171,E,1,10,1.1,1210.3,M,46.9,M,,*6B
$GPGGA,121626.000,6033.9315,N,09023.4179,E,1,10,1.1,1210.3,M,46.9,M,,*6C
$GPGGA,121626.200,6033.9319,N,09023.4187,E,1,10,1.1,1210.3,M,46.9,M,,*63
$GPGGA,121626.400,6033.9322,N,09023.4195,E,1,10,1.1,1210.3,M,46.9,M,,*6E
$GPGGA,121626.600,6033.9326,N,09023.4203,E,1,10,1.1,1210.3,M,46.9,M,,*64
$GPGGA,121626.800,6033.9330,N,09023.4211,E,1,10,1.1,1210.3,M,46.9,M,,*6E
$GPGGA,121627.000,6033.9334,N,09023.4219,E,1,10,1.1,1210.3,M,46.9,M,,*6B
$GPGGA,121627.200,6033.9337,N,09023.4227,E,1,10,1.1,1210.3,M,46.9,M,,*67
$GPGGA,121627.400,6033.9341,N,09023.4235,E,1,10,1.1,1210.3,M,46.9,M,,*63
$GPGGA,121627.600,6033.9345,N,09023.4242,E,1,10,1.1,1209.5,M,46.9,M,,*6B
$GPGGA,121627.800,6033.9349,N,09023.4250,E,1,10,1.1,1209.5,M,46.9,M,,*6A
$GPGGA,121628.000,6033.9353,N,09023.4258,E,1,10,1.1,1209.5,M,46.9,M,,*6E
$GPGGA,121628.200,6033.9356,N,09023.4265,E,1,10,1.1,1209.5,M,46.9,M,,*67
$GPGGA,121628.400,6033.9360,N,09023.4273,E,1,10,1.1,1209.5,M,46.9,M,,*63
$GPGGA,121628.600,6033.9364,N,09023.4281,E,1,10,1.1,1209.5,M,46.9,M,,*68
$GPGGA,121628.800,6033.9368,N,09023.4288,E,1,10,1.1,1209.5,M,46.9,M,,*63
$GPGGA,121629.000,6033.9371,N,09023.4296,E,1,10,1.1,1209.5,M,46.9,M,,*6D
$GPGGA,121629.200,6033.9375,N,09023.4303,E,1,10,1.1,1209.5,M,46.9,M,,*66
$GPGGA,121629.400,6033.9379,N,09023.4310,E,1,10,1.1,1209.5,M,46.9,M,,*6E
$GPGGA,121629.600,6033.9383,N,09023.4318,E,1,10,1.1,1209.5,M,46.9,M,,*61
$GPGGA,121629.800,6033.9387,N,09023.4325,E,1,10,1.1,1208.2,M,46.9,M,,*63
$GPGGA,121630.000,6033.9390,N,09023.4332,E,1,10,1.1,1208.2,M,46.9,M,,*63
$GPGGA,121630.200,6033.9394,N,09023.4339,E,1,10,1.1,1208.2,M,46.9,M,,*6E
$GPGGA,121630.400,6033.9398,N,09023.4346,E,1,10,1.1,1208.2,M,46.9,M,,*6C
$GPGGA,121630.600,6033.9402,N,09023.4353,E,1,10,1.1,1208.2,M,46.9,M,,*6E
$GPGGA,121630.800,6033.9405,N,09023.4360,E,1,10,1.1,1207.5,M,46.9,M,,*6F
$GPGGA,121631.000,6033.9409,N,09023.4367,E,1,10,1.1,1207.5,M,46.9,M,,*6D
$GPGGA,121631.200,6033.9413,N,09023.4374,E,1,10,1.1,1207.5,M,46.9,M,,*66
$GPGGA,121631.400,6033.9417,N,09023.4381,E,1,10,1.1,1207.5,M,46.9,M,,*6E
$GPGGA,121631.600,6033.9421,N,09023.4388,E,1,10,1.1,1207.5,M,46.9,M,,*60
$GPGGA,121631.800,6033.9424,N,09023.4395,E,1,10,1.1,1207.5,M,46.9,M,,*67
$GPGGA,121632.000,6033.9428,N,09023.4402,E,1,10,1.1,1207.5,M,46.9,M,,*69
$GPGGA,121632.200,6033.9432,N,09023.4408,E,1,10,1.1,1207.5,M,46.9,M,,*6A
$GPGGA,121632.400,6033.9436,N,09023.4415,E,1,10,1.1,1207.5,M,46.9,M,,*64
$GPGGA,121632.600,6033.9439,N,09023.4422,E,1,10,1.1,1207.5,M,46.9,M,,*6D
$GPGGA,121632.800,6033.9443,N,09023.4428,E,1,10,1.1,1207.5,M,46.9,M,,*64
$GPGGA,121633.000,6033.9447,N,09023.4435,E,1,10,1.1,1207.5,M,46.9,M,,*65
$GPGGA,121633.200,6033.9451,N,09023.4441,E,1,10,1.1,1207.5,M,46.9,M,,*63
$GPGGA,121633.400,6033.9454,N,09023.4447,E,1,10,1.1,1207.5,M,46.9,M,,*66
$GPGGA,121633.600,6033.9458,N,09023.4454,E,1,10,1.1,1207.5,M,46.9,M,,*6A
$GPGGA,121633.800,6033.9462,N,09023.4460,E,1,10,1.1,1207.5,M,46.9,M,,*6A
$GPGGA,121634.000,6033.9466,N,09023.4466,E,1,10,1.1,1207.5,M,46.9,M,,*67
$GPGGA,121634.200,6033.9469,N,09023.4473,E,1,10,1.1,1207.5,M,46.9,M,,*6E
$GPGGA,121634.400,6033.9473,N,09023.4479,E,1,10,1.1,1207.5,M,46.9,M,,*69
$GPGGA,121634.600,6033.9477,N,09023.4485,E,1,10,1.1,1206.8,M,46.9,M,,*60
$GPGGA,121634.800,6033.9481,N,09023.4491,E,1,10,1.1,1206.8,M,46.9,M,,*62
$GPGGA,121635.000,6033.9485,N,09023.4497,E,1,10,1.1,1206.8,M,46.9,M,,*69
$GPGGA,121635.200,6033.9488,N,09023.4503,E,1,10,1.1,1206.8,M,46.9,M,,*6A
$GPGGA,121635.400,6033.9492,N,09023.4509,E,1,10,1.1,1206.8,M,46.9,M,,*6D
$GPGGA,121635.600,6033.9496,N,09023.4515,E,1,10,1.1,1206.8,M,46.9,M,,*66
$GPGGA,121635.800,6033.9500,N,09023.4521,E,1,10,1.1,1206.8,M,46.9,M,,*61
$GPGGA,121636.000,6033.9503,N,09023.4527,E,1,10,1.1,1206.8,M,46.9,M,,*6F
$GPGGA,121636.200,6033.9507,N,09023.4532,E,1,10,1.1,1205.5,M,46.9,M,,*63
$GPGGA,121636.400,6033.9511,N,09023.4538,E,1,10,1.1,1205.5,M,46.9,M,,*68
$GPGGA,121636.600,6033.9515,N,09023.4544,E,1,10,1.1,1205.5,M,46.9,M,,*65
$GPGGA,121636.800,6033.9518,N,09023.4550,E,1,10,1.1,1205.5,M,46.9,M,,*63
$GPGGA,121637.000,6033.9522,N,09023.4555,E,1,10,1.1,1205.5,M,46.9,M,,*66
$GPGGA,121637.200,6033.9526,N,09023.4561,E,1,10,1.1,1205.5,M,46.9,M,,*67
$GPGGA,121637.400,6033.9530,N,09023.4566,E,1,10,1.1,1205.5,M,46.9,M,,*61
$GPGGA,121637.600,6033.9533,N,09023.4572,E,1,10,1.1,1205.5,M,46.9,M,,*65
$GPGGA,121637.800,6033.9537,N,09023.4577,E,1,10,1.1,1205.5,M,46.9,M,,*6A
$GPGGA,121638.000,6033.9541,N,09023.4582,E,1,10,1.1,1205.5,M,46.9,M,,*66
$GPGGA,121638.200,6033.9545,N,09023.4588,E,1,10,1.1,1205.5,M,46.9,M,,*6A
$GPGGA,121638.400,6033.9548,N,09023.4593,E,1,10,1.1,1205.5,M,46.9,M,,*6B
$GPGGA,121638.600,6033.9552,N,09023.4598,E,1,10,1.1,1205.5,M,46.9,M,,*69
$GPGGA,121638.800,6033.9556,N,09023.4604,E,1,10,1.1,1204.8,M,46.9,M,,*69
$GPGGA,121639.000,6033.9560,N,09023.4609,E,1,10,1.1,1204.8,M,46.9,M,,*68
$GPGGA,121639.200,6033.9563,N,09023.4614,E,1,10,1.1,1204.8,M,46.9,M,,*65
$GPGGA,121639.400,6033.9567,N,09023.4619,E,1,10,1.1,1204.8,M,46.9,M,,*6A
$GPGGA,121639.600,6033.9571,N,09023.4624,E,1,10,1.1,1204.8,M,46.9,M,,*61
$GPGGA,121639.800,6033.9575,N,09023.4629,E,1,10,1.1,1204.8,M,46.9,M,,*66
$GPGGA,121640.000,6033.9578,N,09023.4634,E,1,10,1.1,1204.8,M,46.9,M,,*61
$GPGGA,121640.200,6033.9582,N,09023.4639,E,1,10,1.1,1204.8,M,46.9,M,,*6B
$GPGGA,121640.400,6033.9586,N,09023.4644,E,1,10,1.1,1204.8,M,46.9,M,,*63
$GPGGA,121640.600,6033.9590,N,09023.4648,E,1,10,1.1,1204.8,M,46.9,M,,*6A
$GPGGA,121640.800,6033.9593,N,09023.4653,E,1,10,1.1,1204.8,M,46.9,M,,*6D
$GPGGA,121641.000,6033.9597,N,09023.4658,E,1,10,1.1,1204.8,M,46.9,M,,*6B
$GPGGA,121641.200,6033.9601,N,09023.4663,E,1,10,1.1,1204.8,M,46.9,M,,*6D
$GPGGA,121641.400,6033.9605,N,09023.4667,E,1,10,1.1,1204.8,M,46.9,M,,*6B
$GPGGA,121641.600,6033.9608,N,09023.4672,E,1,10,1.1,1204.8,M,46.9,M,,*60
$GPGGA,121641.800,6033.9612,N,09023.4676,E,1,10,1.1,1204.8,M,46.9,M,,*61
$GPGGA,121642.000,6033.9616,N,09023.4681,E,1,10,1.1,1204.8,M,46.9,M,,*66
$GPGGA,121642.200,6033.9620,N,09023.4685,E,1,10,1.1,1204.8,M,46.9,M,,*65
$GPGGA,121642.400,6033.9623,N,09023.4690,E,1,10,1.1,1204.8,M,46.9,M,,*64
$GPGGA,121642.600,6033.9627,N,09023.4694,E,1,10,1.1,1203.5,M,46.9,M,,*6C
$GPGGA,121642.800,6033.9631,N,09023.4698,E,1,10,1.1,1203.5,M,46.9,M,,*69
$GPGGA,121643.000,6033.9634,N,09023.4703,E,1,10,1.1,1203.5,M,46.9,M,,*66
$GPGGA,121643.200,6033.9638,N,09023.4707,E,1,10,1.1,1203.5,M,46.9,M,,*6C
$GPGGA,121643.400,6033.9642,N,09023.4711,E,1,10,1.1,1203.5,M,46.9,M,,*60
$GPGGA,121643.600,6033.9646,N,09023.4715,E,1,10,1.1,1203.5,M,46.9,M,,*62
$GPGGA,121643.800,6033.9649,N,09023.4720,E,1,10,1.1,1203.5,M,46.9,M,,*65
$GPGGA,121644.000,6033.9653,N,09023.4724,E,1,10,1.1,1202.9,M,46.9,M,,*68
$GPGGA,121644.200,6033.9657,N,09023.4728,E,1,10,1.1,1202.9,M,46.9,M,,*62
$GPGGA,121644.400,6033.9661,N,09023.4732,E,1,10,1.1,1202.9,M,46.9,M,,*6A
$GPGGA,121644.600,6033.9664,N,09023.4736,E,1,11,1.1,1202.9,M,46.9,M,,*68
$GPGGA,121644.800,6033.9668,N,09023.4740,E,1,11,1.1,1202.9,M,46.9,M,,*6B
$GPGGA,121645.000,6033.9672,N,09023.4744,E,1,11,1.1,1202.9,M,46.9,M,,*6D
$GPGGA,121645.200,6033.9676,N,09023.4747,E,1,11,1.1,1202.9,M,46.9,M,,*68
$GPGGA,121645.400,6033.9679,N,09023.4751,E,1,11,1.1,1202.9,M,46.9,M,,*66
$GPGGA,121645.600,6033.9683,N,09023.4755,E,1,11,1.1,1202.9,M,46.9,M,,*65
$GPGGA,121645.800,6033.9687,N,09023.4759,E,1,11,1.1,1202.9,M,46.9,M,,*63
$GPGGA,121646.000,6033.9690,N,09023.4762,E,1,11,1.1,1202.9,M,46.9,M,,*66
$GPGGA,121646.200,6033.9694,N,09023.4766,E,1,11,1.1,1202.9,M,46.9,M,,*64
$GPGGA,121646.400,6033.9698,N,09023.4770,E,1,11,1.1,1202.9,M,46.9,M,,*69
$GPGGA,121646.600,6033.9702,N,09023.4773,E,1,11,1.1,1202.9,M,46.9,M,,*6A
$GPGGA,121646.800,6033.9705,N,09023.4777,E,1,11,1.1,1202.9,M,46.9,M,,*67
$GPGGA,121647.000,6033.9709,N,09023.4780,E,1,11,1.1,1202.9,M,46.9,M,,*6A
$GPGGA,121647.200,6033.9713,N,09023.4784,E,1,11,1.1,1202.9,M,46.9,M,,*67
$GPGGA,121647.400,6033.9717,N,09023.4787,E,1,11,1.1,1202.9,M,46.9,M,,*66
$GPGGA,121647.600,6033.9720,N,09023.4790,E,1,11,1.1,1202.9,M,46.9,M,,*66
$GPGGA,121647.800,6033.9724,N,09023.4794,E,1,11,1.1,1202.9,M,46.9,M,,*68
$GPGGA,121648.000,6033.9728,N,09023.4797,E,1,11,1.1,1202.9,M,46.9,M,,*60
$GPGGA,121648.200,6033.9731,N,09023.4800,E,1,11,1.1,1202.9,M,46.9,M,,*6B
$GPGGA,121648.400,6033.9735,N,09023.4803,E,1,11,1.1,1202.9,M,46.9,M,,*6A
$GPGGA,121648.600,6033.9739,N,09023.4807,E,1,11,1.1,1202.9,M,46.9,M,,*60
$GPGGA,121648.800,6033.9743,N,09023.4810,E,1,11,1.1,1202.9,M,46.9,M,,*65
$GPGGA,121649.000,6033.9746,N,09023.4813,E,1,11,1.1,1201.5,M,46.9,M,,*65
$GPGGA,121649.200,6033.9750,N,09023.4816,E,1,11,1.1,1201.5,M,46.9,M,,*65
$GPGGA,121649.400,6033.9754,N,09023.4819,E,1,11,1.1,1201.5,M,46.9,M,,*68
$GPGGA,121649.600,6033.9758,N,09023.4822,E,1,11,1.1,1201.5,M,46.9,M,,*6E
$GPGGA,121649.800,6033.9761,N,09023.4825,E,1,11,1.1,1201.5,M,46.9,M,,*6D
$GPGGA,121650.000,6033.9765,N,09023.4828,E,1,11,1.1,1201.5,M,46.9,M,,*64
$GPGGA,121650.200,6033.9769,N,09023.4831,E,1,11,1.1,1201.5,M,46.9,M,,*62
$GPGGA,121650.400,6033.9772,N,09023.4834,E,1,11,1.1,1201.5,M,46.9,M,,*6B
$GPGGA,121650.600,6033.9776,N,09023.4836,E,1,11,1.1,1201.5,M,46.9,M,,*6F
$GPGGA,121650.800,6033.9780,N,09023.4839,E,1,11,1.1,1201.5,M,46.9,M,,*67
$GPGGA,121651.000,6033.9784,N,09023.4842,E,1,11,1.1,1201.0,M,46.9,M,,*63
$GPGGA,121651.200,6033.9787,N,09023.4845,E,1,11,1.1,1201.0,M,46.9,M,,*65
$GPGGA,121651.400,6033.9791,N,09023.4847,E,1,11,1.1,1201.0,M,46.9,M,,*66
$GPGGA,121651.600,6033.9795,N,09023.4850,E,1,11,1.1,1201.0,M,46.9,M,,*66
$GPGGA,121651.800,6033.9798,N,09023.4852,E,1,11,1.1,1201.0,M,46.9,M,,*67
$GPGGA,121652.000,6033.9802,N,09023.4855,E,1,11,1.1,1201.0,M,46.9,M,,*67
$GPGGA,121652.200,6033.9806,N,09023.4857,E,1,11,1.1,1201.0,M,46.9,M,,*63
$GPGGA,121652.400,6033.9810,N,09023.4860,E,1,11,1.1,1201.0,M,46.9,M,,*66
$GPGGA,121652.600,6033.9813,N,09023.4862,E,1,11,1.1,1201.0,M,46.9,M,,*65
$GPGGA,121652.800,6033.9817,N,09023.4865,E,1,11,1.1,1201.0,M,46.9,M,,*68
$GPGGA,121653.000,6033.9821,N,09023.4867,E,1,11,1.1,1201.0,M,46.9,M,,*66
$GPGGA,121653.200,6033.9824,N,09023.4869,E,1,11,1.1,1201.0,M,46.9,M,,*6F
$GPGGA,121653.400,6033.9828,N,09023.4872,E,1,11,1.1,1201.0,M,46.9,M,,*6F
$GPGGA,121653.600,6033.9832,N,09023.4874,E,1,11,1.1,1201.0,M,46.9,M,,*60
$GPGGA,121653.800,6033.9835,N,09023.4876,E,1,11,1.1,1201.0,M,46.9,M,,*6B
$GPGGA,121654.000,6033.9839,N,09023.4878,E,1,11,1.1,1201.0,M,46.9,M,,*66
$GPGGA,121654.200,6033.9843,N,09023.4880,E,1,11,1.1,1201.0,M,46.9,M,,*6E
$GPGGA,121654.400,6033.9847,N,09023.4883,E,1,11,1.1,1201.0,M,46.9,M,,*6F
$GPGGA,121654.600,6033.9850,N,09023.4885,E,1,11,1.1,1201.0,M,46.9,M,,*6D
$GPGGA,121654.800,6033.9854,N,09023.4887,E,1,11,1.1,1201.0,M,46.9,M,,*65
$GPGGA,121655.000,6033.9858,N,09023.4889,E,1,11,1.1,1201.0,M,46.9,M,,*6E
$GPGGA,121655.200,6033.9861,N,09023.4891,E,1,11,1.1,1201.0,M,46.9,M,,*6F
$GPGGA,121655.400,6033.9865,N,09023.4893,E,1,11,1.1,1199.6,M,46.9,M,,*6B
$GPGGA,121655.600,6033.9869,N,09023.4895,E,1,11,1.1,1199.6,M,46.9,M,,*63
$GPGGA,121655.800,6033.9873,N,09023.4896,E,1,11,1.1,1199.6,M,46.9,M,,*65
$GPGGA,121656.000,6033.9876,N,09023.4898,E,1,11,1.1,1199.6,M,46.9,M,,*65
$GPGGA,121656.200,6033.9880,N,09023.4900,E,1,11,1.1,1199.6,M,46.9,M,,*6E
$GPGGA,121656.400,6033.9884,N,09023.4902,E,1,11,1.1,1199.6,M,46.9,M,,*6E
$GPGGA,121656.600,6033.9887,N,09023.4904,E,1,11,1.1,1199.6,M,46.9,M,,*69
$GPGGA,121656.800,6033.9891,N,09023.4905,E,1,11,1.1,1199.6,M,46.9,M,,*61
$GPGGA,121657.000,6033.9895,N,09023.4907,E,1,11,1.1,1199.6,M,46.9,M,,*6E
$GPGGA,121657.200,6033.9898,N,09023.4909,E,1,11,1.1,1199.6,M,46.9,M,,*6F
$GPGGA,121657.400,6033.9902,N,09023.4910,E,1,11,1.1,1199.6,M,46.9,M,,*63
$GPGGA,121657.600,6033.9906,N,09023.4912,E,1,11,1.1,1199.6,M,46.9,M,,*67
$GPGGA,121657.800,6033.9909,N,09023.4913,E,1,11,1.1,1199.6,M,46.9,M,,*67
$GPGGA,121658.000,6033.9913,N,09023.4915,E,1,11,1.1,1199.6,M,46.9,M,,*6D
$GPGGA,121658.200,6033.9917,N,09023.4916,E,1,11,1.1,1199.6,M,46.9,M,,*68
$GPGGA,121658.400,6033.9921,N,09023.4918,E,1,11,1.1,1199.6,M,46.9,M,,*65
$GPGGA,121658.600,6033.9924,N,09023.4919,E,1,11,1.1,1199.6,M,46.9,M,,*63
$GPGGA,121658.800,6033.9928,N,09023.4921,E,1,11,1.1,1199.6,M,46.9,M,,*6A
$GPGGA,121659.000,6033.9932,N,09023.4922,E,1,11,1.1,1199.6,M,46.9,M,,*6B
$GPGGA,121659.200,6033.9935,N,09023.4923,E,1,11,1.1,1199.6,M,46.9,M,,*6F
$GPGGA,121659.400,6033.9939,N,09023.4925,E,1,11,1.1,1199.6,M,46.9,M,,*63
$GPGGA,121659.600,6033.9943,N,09023.4926,E,1,11,1.1,1199.6,M,46.9,M,,*6F
$GPGGA,121659.800,6033.9946,N,09023.4927,E,1,11,1.1,1199.6,M,46.9,M,,*65
$GPGGA,121700.000,6033.9950,N,09023.4928,E,1,11,1.1,1199.6,M,46.9,M,,*68
$GPGGA,121700.200,6033.9954,N,09023.4930,E,1,11,1.1,1199.6,M,46.9,M,,*67
$GPGGA,121700.400,6033.9957,N,09023.4931,E,1,11,1.1,1199.6,M,46.9,M,,*63
$GPGGA,121700.600,6033.9961,N,09023.4932,E,1,11,1.1,1199.6,M,46.9,M,,*67
$GPGGA,121700.800,6033.9965,N,09023.4933,E,1,11,1.1,1199.6,M,46.9,M,,*6C
$GPGGA,121701.000,6033.9968,N,09023.4934,E,1,11,1.1,1199.6,M,46.9,M,,*6F
$GPGGA,121701.200,6033.9972,N,09023.4935,E,1,11,1.1,1199.6,M,46.9,M,,*67
$GPGGA,121701.400,6033.9976,N,09023.4936,E,1,11,1.1,1199.6,M,46.9,M,,*66
$GPGGA,121701.600,6033.9980,N,09023.4937,E,1,11,1.1,1199.6,M,46.9,M,,*6C
$GPGGA,121701.800,6033.9983,N,09023.4938,E,1,11,1.1,1199.6,M,46.9,M,,*6E
$GPGGA,121702.000,6033.9987,N,09023.4939,E,1,11,1.1,1198.3,M,46.9,M,,*64
$GPGGA,121702.200,6033.9991,N,09023.4940,E,1,11,1.1,1198.3,M,46.9,M,,*6F
$GPGGA,121702.400,6033.9994,N,09023.4940,E,1,11,1.1,1198.3,M,46.9,M,,*6C
$GPGGA,121702.600,6033.9998,N,09023.4941,E,1,11,1.1,1198.3,M,46.9,M,,*63
$GPGGA,121702.800,6034.0002,N,09023.4942,E,1,11,1.1,1198.3,M,46.9,M,,*6A
$GPGGA,121703.000,6034.0005,N,09023.4943,E,1,11,1.1,1198.3,M,46.9,M,,*65
$GPGGA,121703.200,6034.0009,N,09023.4944,E,1,11,1.1,1198.3,M,46.9,M,,*6C
$GPGGA,121703.400,6034.0013,N,09023.4944,E,1,11,1.1,1198.3,M,46.9,M,,*61
$GPGGA,121703.600,6034.0016,N,09023.4945,E,1,11,1.1,1198.3,M,46.9,M,,*67
$GPGGA,121703.800,6034.0020,N,09023.4946,E,1,11,1.1,1198.3,M,46.9,M,,*6F
$GPGGA,121704.000,6034.0024,N,09023.4946,E,1,11,1.1,1198.3,M,46.9,M,,*64
$GPGGA,121704.200,6034.0027,N,09023.4947,E,1,11,1.1,1198.3,M,46.9,M,,*64
$GPGGA,121704.400,6034.0031,N,09023.4947,E,1,11,1.1,1198.3,M,46.9,M,,*65
$GPGGA,121704.600,6034.0035,N,09023.4948,E,1,11,1.1,1198.3,M,46.9,M,,*6C
$GPGGA,121704.800,6034.0038,N,09023.4949,E,1,11,1.1,1198.3,M,46.9,M,,*6E
$GPGGA,121705.000,6034.0042,N,09023.4949,E,1,11,1.1,1198.3,M,46.9,M,,*6A
$GPGGA,121705.200,6034.0046,N,09023.4950,E,1,11,1.1,1198.3,M,46.9,M,,*64
$GPGGA,121705.400,6034.0049,N,09023.4950,E,1,11,1.1,1198.3,M,46.9,M,,*6D
$GPGGA,121705.600,6034.0053,N,09023.4950,E,1,11,1.1,1198.3,M,46.9,M,,*64
$GPGGA,121705.800,6034.0057,N,09023.4951,E,1,11,1.1,1198.3,M,46.9,M,,*6F
$GPGGA,121706.000,6034.0060,N,09023.4951,E,1,11,1.1,1198.3,M,46.9,M,,*60
$GPGGA,121706.200,6034.0064,N,09023.4952,E,1,11,1.1,1198.3,M,46.9,M,,*65
$GPGGA,121706.400,6034.0068,N,09023.4952,E,1,11,1.1,1198.3,M,46.9,M,,*6F
$GPGGA,121706.600,6034.0071,N,09023.4952,E,1,11,1.1,1198.3,M,46.9,M,,*65
$GPGGA,121706.800,6034.0075,N,09023.4952,E,1,11,1.1,1198.3,M,46.9,M,,*6F
$GPGGA,121707.000,6034.0079,N,09023.4953,E,1,11,1.1,1198.3,M,46.9,M,,*6B
$GPGGA,121707.200,6034.0082,N,09023.4953,E,1,11,1.1,1198.3,M,46.9,M,,*6D
$GPGGA,121707.400,6034.0086,N,09023.4953,E,1,11,1.1,1198.3,M,46.9,M,,*6F
$GPGGA,121707.600,6034.0090,N,09023.4953,E,1,11,1.1,1198.3,M,46.9,M,,*6A
$GPGGA,121707.800,6034.0093,N,09023.4953,E,1,11,1.1,1198.3,M,46.9,M,,*67
$GPGGA,121708.000,6034.0097,N,09023.4954,E,1,11,1.1,1198.3,M,46.9,M,,*63
$GPGGA,121708.200,6034.0101,N,09023.4954,E,1,11,1.1,1198.3,M,46.9,M,,*6F
$GPGGA,121708.400,6034.0104,N,09023.4954,E,1,11,1.1,1196.9,M,46.9,M,,*68
$GPGGA,121708.600,6034.0108,N,09023.4954,E,1,11,1.1,1196.9,M,46.9,M,,*66
$GPGGA,121708.800,6034.0112,N,09023.4954,E,1,11,1.1,1196.9,M,46.9,M,,*63
$GPGGA,121709.000,6034.0115,N,09023.4954,E,1,11,1.1,1196.9,M,46.9,M,,*6D
$GPGGA,121709.200,6034.0119,N,09023.4954,E,1,11,1.1,1196.9,M,46.9,M,,*63
$GPGGA,121709.400,6034.0123,N,09023.4954,E,1,11,1.1,1196.9,M,46.9,M,,*6C
$GPGGA,121709.600,6034.0126,N,09023.4954,E,1,11,1.1,1196.9,M,46.9,M,,*6B
$GPGGA,121709.800,6034.0130,N,09023.4954,E,1,11,1.1,1196.9,M,46.9,M,,*62
$GPGGA,121710.000,6034.0134,N,09023.4953,E,1,11,1.1,1196.9,M,46.9,M,,*61
$GPGGA,121710.200,6034.0137,N,09023.4953,E,1,11,1.1,1196.9,M,46.9,M,,*60
$GPGGA,121710.400,6034.0141,N,09023.4953,E,1,11,1.1,1196.9,M,46.9,M,,*67
$GPGGA,121710.600,6034.0145,N,09023.4953,E,1,11,1.1,1196.9,M,46.9,M,,*61
$GPGGA,121710.800,6034.0148,N,09023.4953,E,1,11,1.1,1196.9,M,46.9,M,,*62
$GPGGA,121711.000,6034.0152,N,09023.4953,E,1,11,1.1,1196.9,M,46.9,M,,*60
$GPGGA,121711.200,6034.0156,N,09023.4952,E,1,11,1.1,1196.9,M,46.9,M,,*67
$GPGGA,121711.400,6034.0159,N,09023.4952,E,1,11,1.1,1196.9,M,46.9,M,,*6E
$GPGGA,121711.600,6034.0163,N,09023.4952,E,1,11,1.1,1196.9,M,46.9,M,,*65
$GPGGA,121711.800,6034.0166,N,09023.4952,E,1,11,1.1,1196.9,M,46.9,M,,*6E
$GPGGA,121712.000,6034.0170,N,09023.4951,E,1,11,1.1,1196.9,M,46.9,M,,*61
$GPGGA,121712.200,6034.0174,N,09023.4951,E,1,11,1.1,1196.9,M,46.9,M,,*67
$GPGGA,121712.400,6034.0177,N,09023.4951,E,1,11,1.1,1196.9,M,46.9,M,,*62
$GPGGA,121712.600,6034.0181,N,09023.4950,E,1,11,1.1,1196.9,M,46.9,M,,*68
$GPGGA,121712.800,6034.0185,N,09023.4950,E,1,11,1.1,1196.9,M,46.9,M,,*62
$GPGGA,121713.000,6034.0188,N,09023.4949,E,1,11,1.1,1196.9,M,46.9,M,,*6E
$GPGGA,121713.200,6034.0192,N,09023.4949,E,1,11,1.1,1196.9,M,46.9,M,,*67
$GPGGA,121713.400,6034.0196,N,09023.4949,E,1,11,1.1,1196.9,M,46.9,M,,*65
$GPGGA,121713.600,6034.0199,N,09023.4948,E,1,11,1.1,1196.9,M,46.9,M,,*69
$GPGGA,121713.800,6034.0203,N,09023.4948,E,1,11,1.1,1196.9,M,46.9,M,,*67
$GPGGA,121714.000,6034.0207,N,09023.4947,E,1,11,1.1,1196.9,M,46.9,M,,*63
$GPGGA,121714.200,6034.0210,N,09023.4947,E,1,11,1.1,1196.9,M,46.9,M,,*67
$GPGGA,121714.400,6034.0214,N,09023.4946,E,1,11,1.1,1196.9,M,46.9,M,,*64
$GPGGA,121714.600,6034.0217,N,09023.4946,E,1,11,1.1,1196.9,M,46.9,M,,*65
$GPGGA,121714.800,6034.0221,N,09023.4945,E,1,11,1.1,1196.9,M,46.9,M,,*6D
$GPGGA,121715.000,6034.0225,N,09023.4944,E,1,11,1.1,1195.6,M,46.9,M,,*6D
$GPGGA,121715.200,6034.0228,N,09023.4944,E,1,11,1.1,1195.6,M,46.9,M,,*62
$GPGGA,121715.400,6034.0232,N,09023.4943,E,1,11,1.1,1195.6,M,46.9,M,,*68
$GPGGA,121715.600,6034.0236,N,09023.4943,E,1,11,1.1,1195.6,M,46.9,M,,*6E
$GPGGA,121715.800,6034.0239,N,09023.4942,E,1,11,1.1,1195.6,M,46.9,M,,*6E
$GPGGA,121716.000,6034.0243,N,09023.4941,E,1,11,1.1,1195.6,M,46.9,M,,*6B
$GPGGA,121716.200,6034.0247,N,09023.4940,E,1,11,1.1,1195.6,M,46.9,M,,*6C
$GPGGA,121716.400,6034.0250,N,09023.4940,E,1,11,1.1,1195.6,M,46.9,M,,*6C
$GPGGA,121716.600,6034.0254,N,09023.4939,E,1,11,1.1,1195.6,M,46.9,M,,*64
$GPGGA,121716.800,6034.0257,N,09023.4938,E,1,11,1.1,1195.6,M,46.9,M,,*68
$GPGGA,121717.000,6034.0261,N,09023.4938,E,1,11,1.1,1195.6,M,46.9,M,,*64
$GPGGA,121717.200,6034.0265,N,09023.4937,E,1,11,1.1,1195.6,M,46.9,M,,*6D
$GPGGA,121717.400,6034.0268,N,09023.4936,E,1,11,1.1,1195.6,M,46.9,M,,*67
$GPGGA,121717.600,6034.0272,N,09023.4935,E,1,11,1.1,1195.6,M,46.9,M,,*6D
$GPGGA,121717.800,6034.0276,N,09023.4934,E,1,11,1.1,1195.6,M,46.9,M,,*66
$GPGGA,121718.000,6034.0279,N,09023.4934,E,1,11,1.1,1195.6,M,46.9,M,,*6E
$GPGGA,121718.200,6034.0283,N,09023.4933,E,1,11,1.1,1195.6,M,46.9,M,,*6E
$GPGGA,121718.400,6034.0286,N,09023.4932,E,1,11,1.1,1195.6,M,46.9,M,,*6C
$GPGGA,121718.600,6034.0290,N,09023.4931,E,1,11,1.1,1195.6,M,46.9,M,,*6A
$GPGGA,121718.800,6034.0294,N,09023.4930,E,1,11,1.1,1195.6,M,46.9,M,,*61
$GPGGA,121719.000,6034.0297,N,09023.4929,E,1,11,1.1,1195.6,M,46.9,M,,*63
$GPGGA,121719.200,6034.0301,N,09023.4928,E,1,11,1.1,1195.6,M,46.9,M,,*6E
$GPGGA,121719.400,6034.0305,N,09023.4927,E,1,11,1.1,1195.6,M,46.9,M,,*63
$GPGGA,121719.600,6034.0308,N,09023.4926,E,1,11,1.1,1195.6,M,46.9,M,,*6D
$GPGGA,121719.800,6034.0312,N,09023.4926,E,1,11,1.1,1195.6,M,46.9,M,,*68
$GPGGA,121720.000,6034.0315,N,09023.4925,E,1,11,1.1,1195.6,M,46.9,M,,*6E
$GPGGA,121720.200,6034.0319,N,09023.4924,E,1,11,1.1,1195.6,M,46.9,M,,*61
$GPGGA,121720.400,6034.0323,N,09023.4923,E,1,11,1.1,1195.6,M,46.9,M,,*69
$GPGGA,121720.600,6034.0326,N,09023.4922,E,1,11,1.1,1195.6,M,46.9,M,,*6F
$GPGGA,121720.800,6034.0330,N,09023.4921,E,1,11,1.1,1195.6,M,46.9,M,,*65
$GPGGA,121721.000,6034.0334,N,09023.4920,E,1,11,1.1,1195.6,M,46.9,M,,*69
$GPGGA,121721.200,6034.0337,N,09023.4919,E,1,11,1.1,1195.6,M,46.9,M,,*62
$GPGGA,121721.400,6034.0341,N,09023.4918,E,1,11,1.1,1195.6,M,46.9,M,,*64
$GPGGA,121721.600,6034.0344,N,09023.4916,E,1,11,1.1,1194.2,M,46.9,M,,*68
$GPGGA,121721.800,6034.0348,N,09023.4915,E,1,11,1.1,1194.2,M,46.9,M,,*69
$GPGGA,121722.000,6034.0352,N,09023.4914,E,1,11,1.1,1194.2,M,46.9,M,,*68
$GPGGA,121722.200,6034.0355,N,09023.4913,E,1,11,1.1,1194.2,M,46.9,M,,*6A
$GPGGA,121722.400,6034.0359,N,09023.4912,E,1,11,1.1,1194.2,M,46.9,M,,*61
$GPGGA,121722.600,6034.0362,N,09023.4911,E,1,11,1.1,1194.2,M,46.9,M,,*68
$GPGGA,121722.800,6034.0366,N,09023.4910,E,1,11,1.1,1194.2,M,46.9,M,,*63
$GPGGA,121723.000,6034.0370,N,09023.4909,E,1,11,1.1,1194.2,M,46.9,M,,*65
$GPGGA,121723.200,6034.0373,N,09023.4908,E,1,11,1.1,1194.2,M,46.9,M,,*65
$GPGGA,121723.400,6034.0377,N,09023.4907,E,1,11,1.1,1194.2,M,46.9,M,,*68
$GPGGA,121723.600,6034.0381,N,09023.4905,E,1,11,1.1,1194.2,M,46.9,M,,*61
$GPGGA,121723.800,6034.0384,N,09023.4904,E,1,11,1.1,1194.2,M,46.9,M,,*6B
$GPGGA,121724.000,6034.0388,N,09023.4903,E,1,11,1.1,1194.2,M,46.9,M,,*6F
$GPGGA,121724.200,6034.0391,N,09023.4902,E,1,11,1.1,1194.2,M,46.9,M,,*64
$GPGGA,121724.400,6034.0395,N,09023.4901,E,1,11,1.1,1194.2,M,46.9,M,,*65
$GPGGA,121724.600,6034.0399,N,09023.4899,E,1,11,1.1,1194.2,M,46.9,M,,*6B
$GPGGA,121724.800,6034.0402,N,09023.4898,E,1,11,1.1,1194.2,M,46.9,M,,*61
$GPGGA,121725.000,6034.0406,N,09023.4897,E,1,11,1.1,1194.2,M,46.9,M,,*63
$GPGGA,121725.200,6034.0409,N,09023.4896,E,1,11,1.1,1194.2,M,46.9,M,,*6F
$GPGGA,121725.400,6034.0413,N,09023.4895,E,1,11,1.1,1194.2,M,46.9,M,,*61
$GPGGA,121725.600,6034.0417,N,09023.4893,E,1,11,1.1,1194.2,M,46.9,M,,*61
$GPGGA,121725.800,6034.0420,N,09023.4892,E,1,11,1.1,1194.2,M,46.9,M,,*6A
$GPGGA,121726.000,6034.0424,N,09023.4891,E,1,11,1.1,1194.2,M,46.9,M,,*66
$GPGGA,121726.200,6034.0427,N,09023.4890,E,1,11,1.1,1194.2,M,46.9,M,,*66
$GPGGA,121726.400,6034.0431,N,09023.4888,E,1,11,1.1,1194.2,M,46.9,M,,*6E
$GPGGA,121726.600,6034.0435,N,09023.4887,E,1,11,1.1,1194.2,M,46.9,M,,*67
$GPGGA,121726.800,6034.0438,N,09023.4886,E,1,11,1.1,1194.2,M,46.9,M,,*65
$GPGGA,121727.000,6034.0442,N,09023.4885,E,1,11,1.1,1194.2,M,46.9,M,,*62
$GPGGA,121727.200,6034.0445,N,09023.4883,E,1,11,1.1,1194.2,M,46.9,M,,*61
$GPGGA,121727.400,6034.0449,N,09023.4882,E,1,11,1.1,1194.2,M,46.9,M,,*6A
$GPGGA,121727.600,6034.0453,N,09023.4881,E,1,11,1.1,1194.2,M,46.9,M,,*60
$GPGGA,121727.800,6034.0456,N,09023.4879,E,1,11,1.1,1194.2,M,46.9,M,,*6C
$GPGGA,121728.000,6034.0460,N,09023.4878,E,1,11,1.1,1194.2,M,46.9,M,,*6F
$GPGGA,121728.200,6034.0463,N,09023.4877,E,1,11,1.1,1194.2,M,46.9,M,,*61
$GPGGA,121728.400,6034.0467,N,09023.4876,E,1,11,1.1,1192.9,M,46.9,M,,*6F
$GPGGA,121728.600,6034.0471,N,09023.4874,E,1,11,1.1,1192.9,M,46.9,M,,*68
$GPGGA,121728.800,6034.0474,N,09023.4873,E,1,11,1.1,1192.9,M,46.9,M,,*64
$GPGGA,121729.000,6034.0478,N,09023.4872,E,1,11,1.1,1192.9,M,46.9,M,,*60
$GPGGA,121729.200,6034.0481,N,09023.4870,E,1,11,1.1,1192.9,M,46.9,M,,*66
$GPGGA,121729.400,6034.0485,N,09023.4869,E,1,11,1.1,1192.9,M,46.9,M,,*6C
$GPGGA,121729.600,6034.0488,N,09023.4868,E,1,11,1.1,1192.9,M,46.9,M,,*62
$GPGGA,121729.800,6034.0492,N,09023.4866,E,1,11,1.1,1192.9,M,46.9,M,,*69
$GPGGA,121730.000,6034.0496,N,09023.4865,E,1,11,1.1,1192.9,M,46.9,M,,*6E
$GPGGA,121730.200,6034.0499,N,09023.4864,E,1,11,1.1,1192.9,M,46.9,M,,*62
$GPGGA,121730.400,6034.0503,N,09023.4862,E,1,11,1.1,1192.9,M,46.9,M,,*60
$GPGGA,121730.600,6034.0506,N,09023.4861,E,1,11,1.1,1192.9,M,46.9,M,,*64
$GPGGA,121730.800,6034.0510,N,09023.4860,E,1,11,1.1,1192.9,M,46.9,M,,*6C
$GPGGA,121731.000,6034.0514,N,09023.4858,E,1,11,1.1,1192.9,M,46.9,M,,*6A
$GPGGA,121731.200,6034.0517,N,09023.4857,E,1,11,1.1,1192.9,M,46.9,M,,*64
$GPGGA,121731.400,6034.0521,N,09023.4856,E,1,11,1.1,1192.9,M,46.9,M,,*66
$GPGGA,121731.600,6034.0524,N,09023.4854,E,1,11,1.1,1192.9,M,46.9,M,,*63
$GPGGA,121731.800,6034.0528,N,09023.4853,E,1,11,1.1,1192.9,M,46.9,M,,*66
$GPGGA,121732.000,6034.0531,N,09023.4851,E,1,11,1.1,1192.9,M,46.9,M,,*67
$GPGGA,121732.200,6034.0535,N,09023.4850,E,1,11,1.1,1192.9,M,46.9,M,,*60
$GPGGA,121732.400,6034.0539,N,09023.4849,E,1,11,1.1,1192.9,M,46.9,M,,*62
$GPGGA,121732.600,6034.0542,N,09023.4847,E,1,11,1.1,1192.9,M,46.9,M,,*62
$GPGGA,121732.800,6034.0546,N,09023.4846,E,1,11,1.1,1192.9,M,46.9,M,,*69
$GPGGA,121733.000,6034.0549,N,09023.4845,E,1,11,1.1,1192.9,M,46.9,M,,*6C
$GPGGA,121733.200,6034.0553,N,09023.4843,E,1,11,1.1,1192.9,M,46.9,M,,*63
$GPGGA,121733.400,6034.0556,N,09023.4842,E,1,11,1.1,1192.9,M,46.9,M,,*61
$GPGGA,121733.600,6034.0560,N,09023.4841,E,1,11,1.1,1192.9,M,46.9,M,,*65
$GPGGA,121733.800,6034.0564,N,09023.4839,E,1,11,1.1,1193.4,M,46.9,M,,*6C
$GPGGA,121734.000,6034.0567,N,09023.4838,E,1,11,1.1,1193.4,M,46.9,M,,*61
$GPGGA,121734.200,6034.0571,N,09023.4837,E,1,11,1.1,1193.4,M,46.9,M,,*6B
$GPGGA,121734.400,6034.0574,N,09023.4835,E,1,11,1.1,1193.4,M,46.9,M,,*6A
$GPGGA,121734.600,6034.0578,N,09023.4834,E,1,11,1.1,1193.4,M,46.9,M,,*65
$GPGGA,121734.800,6034.0581,N,09023.4833,E,1,11,1.1,1193.4,M,46.9,M,,*6A
$GPGGA,121735.000,6034.0585,N,09023.4831,E,1,11,1.1,1192.0,M,46.9,M,,*60
$GPGGA,121735.200,6034.0589,N,09023.4830,E,1,11,1.1,1192.0,M,46.9,M,,*6F
$GPGGA,121735.400,6034.0592,N,09023.4829,E,1,11,1.1,1192.0,M,46.9,M,,*6B
$GPGGA,121735.600,6034.0596,N,09023.4827,E,1,11,1.1,1192.0,M,46.9,M,,*63
$GPGGA,121735.800,6034.0599,N,09023.4826,E,1,11,1.1,1192.0,M,46.9,M,,*63
$GPGGA,121736.000,6034.0603,N,09023.4825,E,1,11,1.1,1192.0,M,46.9,M,,*6B
$GPGGA,121736.200,6034.0606,N,09023.4823,E,1,11,1.1,1192.0,M,46.9,M,,*6A
$GPGGA,121736.400,6034.0610,N,09023.4822,E,1,11,1.1,1192.0,M,46.9,M,,*6A
$GPGGA,121736.600,6034.0614,N,09023.4821,E,1,11,1.1,1192.0,M,46.9,M,,*6F
$GPGGA,121736.800,6034.0617,N,09023.4819,E,1,11,1.1,1192.0,M,46.9,M,,*69
$GPGGA,121737.000,6034.0621,N,09023.4818,E,1,11,1.1,1192.0,M,46.9,M,,*64
$GPGGA,121737.200,6034.0624,N,09023.4817,E,1,11,1.1,1192.0,M,46.9,M,,*6C
$GPGGA,121737.400,6034.0628,N,09023.4815,E,1,11,1.1,1192.0,M,46.9,M,,*64
$GPGGA,121737.600,6034.0631,N,09023.4814,E,1,11,1.1,1192.0,M,46.9,M,,*6F
$GPGGA,121737.800,6034.0635,N,09023.4813,E,1,11,1.1,1192.0,M,46.9,M,,*62
$GPGGA,121738.000,6034.0638,N,09023.4812,E,1,11,1.1,1192.0,M,46.9,M,,*69
$GPGGA,121738.200,6034.0642,N,09023.4810,E,1,11,1.1,1192.0,M,46.9,M,,*64
$GPGGA,121738.400,6034.0646,N,09023.4809,E,1,11,1.1,1192.0,M,46.9,M,,*6E
$GPGGA,121738.600,6034.0649,N,09023.4808,E,1,11,1.1,1192.0,M,46.9,M,,*62
$GPGGA,121738.800,6034.0653,N,09023.4806,E,1,11,1.1,1192.0,M,46.9,M,,*69
$GPGGA,121739.000,6034.0656,N,09023.4805,E,1,11,1.1,1192.0,M,46.9,M,,*66
$GPGGA,121739.200,6034.0660,N,09023.4804,E,1,11,1.1,1192.0,M,46.9,M,,*60
$GPGGA,121739.400,6034.0663,N,09023.4803,E,1,11,1.1,1192.0,M,46.9,M,,*62
$GPGGA,121739.600,6034.0667,N,09023.4802,E,1,11,1.1,1192.0,M,46.9,M,,*65
$GPGGA,121739.800,6034.0670,N,09023.4800,E,1,11,1.1,1192.0,M,46.9,M,,*6F
$GPGGA,121740.000,6034.0674,N,09023.4799,E,1,11,1.1,1192.0,M,46.9,M,,*62
$GPGGA,121740.200,6034.0678,N,09023.4798,E,1,11,1.1,1192.0,M,46.9,M,,*6D
$GPGGA,121740.400,6034.0681,N,09023.4797,E,1,11,1.1,1192.0,M,46.9,M,,*62
$GPGGA,121740.600,6034.0685,N,09023.4795,E,1,11,1.1,1192.0,M,46.9,M,,*66
$GPGGA,121740.800,6034.0688,N,09023.4794,E,1,11,1.1,1192.0,M,46.9,M,,*64
$GPGGA,121741.000,6034.0692,N,09023.4793,E,1,11,1.1,1192.0,M,46.9,M,,*61
$GPGGA,121741.200,6034.0695,N,09023.4792,E,1,11,1.1,1192.0,M,46.9,M,,*65
$GPGGA,121741.400,6034.0699,N,09023.4791,E,1,11,1.1,1192.0,M,46.9,M,,*6C
$GPGGA,121741.600,6034.0702,N,09023.4790,E,1,11,1.1,1192.0,M,46.9,M,,*6C
$GPGGA,121741.800,6034.0706,N,09023.4788,E,1,11,1.1,1190.7,M,46.9,M,,*6A
